{"version": 0.6, "generator": "Overpass API 0.7.61.5 4133829e", "osm3s": {"timestamp_osm_base": "2023-12-20T21:18:01Z", "copyright": "The data included in this document is from www.openstreetmap.org. The data is made available under ODbL."}, "elements": [{"type": "node", "id": 109776939, "lat": 39.9575531, "lon": -75.1537996}, {"type": "node", "id": 109776957, "lat": 39.9573218, "lon": -75.153842}, {"type": "node", "id": 109776963, "lat": 39.9572519, "lon": -75.1538709}, {"type": "node", "id": 109776973, "lat": 39.9572135, "lon": -75.1538986}, {"type": "node", "id": 109776982, "lat": 39.9571685, "lon": -75.1539912}, {"type": "node", "id": 109776992, "lat": 39.9571524, "lon": -75.1540515}, {"type": "node", "id": 109777003, "lat": 39.9571383, "lon": -75.1541223}, {"type": "node", "id": 109777010, "lat": 39.9571323, "lon": -75.1541984}, {"type": "node", "id": 109777013, "lat": 39.9571303, "lon": -75.1542561}, {"type": "node", "id": 109777023, "lat": 39.9571261, "lon": -75.1543281}, {"type": "node", "id": 109777030, "lat": 39.957123, "lon": -75.1544166}, {"type": "node", "id": 109777038, "lat": 39.9571229, "lon": -75.1545165}, {"type": "node", "id": 109777048, "lat": 39.9571271, "lon": -75.1548893}, {"type": "node", "id": 109840225, "lat": 40.021466, "lon": -75.086349}, {"type": "node", "id": 109840245, "lat": 40.022761, "lon": -75.085089}, {"type": "node", "id": 109901161, "lat": 39.9981345, "lon": -75.1261003}, {"type": "node", "id": 109901169, "lat": 39.998043, "lon": -75.12538, "tags": {"highway": "traffic_signals"}}, {"type": "node", "id": 110056509, "lat": 39.9743993, "lon": -75.1759383}, {"type": "node", "id": 110123743, "lat": 39.9744433, "lon": -75.1754423}, {"type": "node", "id": 110176752, "lat": 39.9758817, "lon": -75.1330891}, {"type": "node", "id": 110176765, "lat": 39.976355, "lon": -75.1336684}, {"type": "node", "id": 110331349, "lat": 39.999721, "lon": -75.125764}, {"type": "node", "id": 110331352, "lat": 39.999628, "lon": -75.125058, "tags": {"highway": "traffic_signals"}}, {"type": "node", "id": 110344008, "lat": 40.022417, "lon": -75.084426, "tags": {"highway": "traffic_signals", "traffic_signals": "signal"}}, {"type": "node", "id": 110353161, "lat": 39.9572083, "lon": -75.1554922}, {"type": "node", "id": 110353901, "lat": 40.020432, "lon": -75.084521}, {"type": "node", "id": 110353910, "lat": 40.020424, "lon": -75.084326, "tags": {"highway": "traffic_signals"}}, {"type": "node", "id": 110374709, "lat": 39.9746191, "lon": -75.1737575}, {"type": "node", "id": 110374713, "lat": 39.9743538, "lon": -75.1763882}, {"type": "node", "id": 110398262, "lat": 39.9576764, "lon": -75.155394}, {"type": "node", "id": 110434942, "lat": 40.0317411, "lon": -75.1693449}, {"type": "node", "id": 110437944, "lat": 39.9578703, "lon": -75.1553517}, {"type": "node", "id": 110505441, "lat": 39.9577764, "lon": -75.1544921}, {"type": "node", "id": 110524222, "lat": 39.999206, "lon": -75.125882}, {"type": "node", "id": 110556556, "lat": 39.9576241, "lon": -75.1543691}, {"type": "node", "id": 110556561, "lat": 39.9576541, "lon": -75.1544111}, {"type": "node", "id": 274215467, "lat": 39.9593485, "lon": -75.1949198, "tags": {"amenity": "fast_food", "created_by": "Potlatch 0.9c", "cuisine": "pizza", "name": "Powelton Pizza"}}, {"type": "node", "id": 274217596, "lat": 39.9530145, "lon": -75.1922885, "tags": {"addr:city": "Philadelphia", "addr:housenumber": "3401", "addr:postcode": "19104", "addr:state": "PA", "addr:street": "Walnut Street", "amenity": "cafe", "brand": "Starbucks", "brand:wikidata": "Q37158", "brand:wikipedia": "en:Starbucks", "contact:website": "https://www.starbucks.com/store-locator/store/14716/walnut-34th-3401-walnut-st-philadelphia-pa-191046228-us", "cuisine": "coffee_shop", "name": "Starbucks", "official_name": "Starbucks Coffee", "opening_hours": "Mo-Fr 05:30-24:00; Sa,Su 06:00-24:00", "phone": "215-387-1914", "takeaway": "yes"}}, {"type": "node", "id": 333786044, "lat": 39.9408584, "lon": -75.1589281, "tags": {"amenity": "restaurant", "created_by": "Potlatch 0.10f", "name": "Sam's Morning Glory", "source": "knowledge", "wheelchair": "limited"}}, {"type": "node", "id": 333786095, "lat": 39.9419244, "lon": -75.1573574, "tags": {"amenity": "cafe", "created_by": "Potlatch 0.10f", "name": "Chapter House", "source": "knowledge"}}, {"type": "node", "id": 333786448, "lat": 39.9426417, "lon": -75.1579582, "tags": {"amenity": "bank"}}, {"type": "node", "id": 343216948, "lat": 39.9484692, "lon": -75.2103774}, {"type": "node", "id": 343223621, "lat": 39.9567501, "lon": -75.2104541, "tags": {"addr:postcode": "19104", "addr:street": "Chestnut St", "amenity": "cafe", "created_by": "Potlatch 0.10f", "internet_access": "terminal", "name": "Kaffa Crossing", "url": "http://www.kaffacrossing.com/"}}, {"type": "node", "id": 343292682, "lat": 39.9539582, "lon": -75.202526}, {"type": "node", "id": 343292683, "lat": 39.9539359, "lon": -75.2023441}, {"type": "node", "id": 343292684, "lat": 39.9536228, "lon": -75.2024094}, {"type": "node", "id": 343292685, "lat": 39.953645, "lon": -75.2025913}, {"type": "node", "id": 343293151, "lat": 39.9538723, "lon": -75.2032852, "tags": {"addr:city": "Philadelphia", "addr:housenumber": "4012", "addr:postcode": "19104", "addr:state": "PA", "addr:street": "Walnut Street", "amenity": "cinema", "brand": "Cinemark", "brand:wikidata": "Q707530", "brand:wikipedia": "en:Cinemark Theatres", "contact:phone": "+1-215-386-9800", "description": "Movie theatre. Does not allow bags or backpacks.", "email": "1109@cinemark.com", "name": "Cinemark University City Penn 6", "phone": "+1-215-386-9800", "website": "https://www.cinemark.com/pennsylvania/cinemark-university-city-penn-6", "wheelchair": "yes", "wikidata": "Q43385693"}}, {"type": "node", "id": 343293716, "lat": 39.9604402, "lon": -75.1597701, "tags": {"addr:city": "Philadelphia", "addr:housenumber": "428", "addr:postcode": "19123", "addr:state": "PA", "addr:street": "North 13th Street", "amenity": "cafe", "internet_access": "wlan", "internet_access:ssid": "CafeLift", "name": "Cafe Lift", "opening_hours": "Mo-Su 08:00-15:00", "source": "survey"}}, {"type": "node", "id": 343293806, "lat": 39.9607305, "lon": -75.1594566, "tags": {"addr:city": "Philadelphia", "addr:housenumber": "501", "addr:postcode": "19123", "addr:state": "PA", "addr:street": "North 13th Street", "amenity": "pub", "brewery": "yes", "name": "Prohibition Taproom", "opening_hours": "Mo-Su 11:00-02:00", "source": "survey"}}, {"type": "node", "id": 357274893, "lat": 39.9723348, "lon": -75.1301762, "tags": {"alt_name": "Adaire School", "amenity": "school", "ele": "7", "gnis:county_id": "101", "gnis:created": "08/02/1979", "gnis:feature_id": "1168055", "gnis:state_id": "42", "name": "Adaire Alexander School"}}, {"type": "node", "id": 357275176, "lat": 40.0017385, "lon": -75.0695045, "tags": {"amenity": "school", "ele": "5", "gnis:county_id": "101", "gnis:created": "08/02/1979", "gnis:feature_id": "1168156", "gnis:state_id": "42", "name": "All Saints School"}}, {"type": "node", "id": 357275183, "lat": 40.0584445, "lon": -74.9937808, "tags": {"amenity": "school", "ele": "23", "gnis:county_id": "101", "gnis:created": "08/02/1979", "gnis:feature_id": "1168157", "gnis:state_id": "42", "name": "All Saints School"}}, {"type": "node", "id": 357275284, "lat": 39.9720571, "lon": -75.2307366, "tags": {"alt_name": "Alleyne Memorial AME Zion Church", "amenity": "place_of_worship", "ele": "30", "gnis:county_id": "101", "gnis:created": "08/02/1979", "gnis:feature_id": "1168203", "gnis:state_id": "42", "name": "Alleyne Church", "religion": "christian"}}, {"type": "node", "id": 357275310, "lat": 40.0801108, "lon": -74.9757244, "tags": {"amenity": "school", "ele": "21", "gnis:county_id": "101", "gnis:created": "08/02/1979", "gnis:feature_id": "1168218", "gnis:state_id": "42", "name": "Aloysius Fitzpatrick School"}}, {"type": "node", "id": 357275664, "lat": 39.9886518, "lon": -75.169799, "tags": {"alt_name": "Anna B. Pratt School", "amenity": "kindergarten", "ele": "30", "gnis:county_id": "101", "gnis:created": "08/02/1979", "gnis:feature_id": "1168416", "gnis:state_id": "42", "historic:amenity": "school", "name": "Anna B. Pratt Early Childhood Center", "old_name": "Michael Arnold School"}}, {"type": "node", "id": 357275899, "lat": 39.970151, "lon": -75.1739005, "tags": {"alt_name": "Bache School", "amenity": "school", "ele": "30", "gnis:county_id": "101", "gnis:created": "08/02/1979", "gnis:feature_id": "1168552", "gnis:state_id": "42", "name": "Bache-Martin School"}}, {"type": "node", "id": 357276033, "lat": 39.9187477, "lon": -75.174573, "tags": {"addr:city": "Philadelphia", "addr:postcode": "19145", "addr:state": "PA", "addr:street": "South 16th Street", "alt_name": "St. Monica's Senior Catholic School", "amenity": "school", "ele": "6", "gnis:county_id": "101", "gnis:created": "08/02/1979", "gnis:feature_id": "1168660", "gnis:state_id": "42", "name": "St. Monica's Catholic School", "operator": "St. Monica's Catholic Church"}}, {"type": "node", "id": 357276188, "lat": 39.9647083, "lon": -75.238511, "tags": {"alt_name": "Barry School", "amenity": "school", "ele": "35", "gnis:county_id": "101", "gnis:created": "08/02/1979", "gnis:feature_id": "1168772", "gnis:state_id": "42", "name": "Commodore John Barry Elementary School"}}, {"type": "node", "id": 357276218, "lat": 39.9219295, "lon": -75.2339539, "tags": {"amenity": "school", "ele": "17", "gnis:county_id": "101", "gnis:created": "08/02/1979", "gnis:feature_id": "1168789", "gnis:state_id": "42", "name": "John Bartram High School"}}, {"type": "node", "id": 357277661, "lat": 39.9853317, "lon": -75.1833841, "tags": {"alt_name": "Blaine School", "amenity": "school", "ele": "33", "gnis:county_id": "101", "gnis:created": "08/02/1979", "gnis:feature_id": "1169786", "gnis:state_id": "42", "name": "James G. Blaine School"}}, {"type": "node", "id": 357278039, "lat": 40.0639621, "lon": -75.0413834, "tags": {"addr:city": "Philadelphia", "addr:housenumber": "8441", "addr:postcode": "19152", "addr:street": "Roosevelt Boulevard", "amenity": "place_of_worship", "denomination": "seventh_day_adventist", "gnis:feature_id": "1170035", "name": "Philadelphia Boulevard Seventh-day Adventist Church", "phone": "+1 215 335 3454", "religion": "christian", "website": "https://www.blvdfriendly.org/"}}, {"type": "node", "id": 357278465, "lat": 40.0294183, "lon": -75.1384805, "tags": {"amenity": "school", "ele": "36", "gnis:county_id": "101", "gnis:created": "08/02/1979", "gnis:feature_id": "1170262", "gnis:state_id": "42", "name": "Lindley Academy Charter School at Birney", "old_name": "Brine School"}}, {"type": "node", "id": 357279356, "lat": 40.0943908, "lon": -74.9764653, "tags": {"amenity": "place_of_worship", "ele": "31", "gnis:county_id": "101", "gnis:created": "08/02/1979", "gnis:feature_id": "1170834", "gnis:state_id": "42", "name": "Byberry Chapel", "religion": "christian"}}, {"type": "node", "id": 357279627, "lat": 39.9731684, "lon": -75.2393481, "tags": {"amenity": "place_of_worship", "denomination": "presbyterian", "ele": "42", "gnis:county_id": "101", "gnis:created": "08/02/1979", "gnis:feature_id": "1170953", "gnis:state_id": "42", "name": "Calvin Church", "religion": "christian"}}, {"type": "node", "id": 357279750, "lat": 40.0495111, "lon": -75.122674}, {"type": "node", "id": 357279946, "lat": 39.9276092, "lon": -75.239537, "tags": {"alt_name": "Catharine School", "amenity": "school", "ele": "22", "gnis:county_id": "101", "gnis:created": "08/02/1979", "gnis:feature_id": "1171336", "gnis:state_id": "42", "name": "Joseph Catherine Elementary School"}}, {"type": "node", "id": 357279952, "lat": 40.0644003, "lon": -75.2411093, "tags": {"addr:city": "Philadelphia", "addr:housenumber": "630", "addr:postcode": "19128", "addr:street": "East Cathedral Road", "amenity": "place_of_worship", "building": "yes", "denomination": "anglican", "ele": "128", "name": "St Mary's Episcopal Church", "religion": "christian"}}, {"type": "node", "id": 357280940, "lat": 40.0753887, "lon": -74.9948918, "tags": {"amenity": "school", "ele": "26", "gnis:county_id": "101", "gnis:created": "08/02/1979", "gnis:feature_id": "1171803", "gnis:state_id": "42", "name": "Christ the King School"}}, {"type": "node", "id": 357281126, "lat": 40.020455, "lon": -75.1196155, "tags": {"amenity": "school", "ele": "29", "gnis:county_id": "101", "gnis:created": "08/02/1979", "gnis:feature_id": "1171896", "gnis:state_id": "42", "name": "Clara Barton School", "wikidata": "Q5125942"}}, {"type": "node", "id": 357281294, "lat": 40.011455, "lon": -75.1587038, "tags": {"amenity": "school", "ele": "39", "gnis:county_id": "101", "gnis:created": "08/02/1979", "gnis:feature_id": "1171995", "gnis:state_id": "42", "name": "Grover Cleveland Mastery Charter School", "old_name": "Grover Cleveland Elementary School"}}, {"type": "node", "id": 357281580, "lat": 39.9407485, "lon": -75.2167389, "tags": {"alt_name": "Comegys School", "amenity": "school", "ele": "22", "gnis:county_id": "101", "gnis:created": "08/02/1979", "gnis:feature_id": "1172260", "gnis:state_id": "42", "name": "Benjamin B. Comegys Elementary School"}}, {"type": "node", "id": 357281587, "lat": 40.1209435, "lon": -75.0090585, "tags": {"amenity": "school", "ele": "67", "gnis:county_id": "101", "gnis:created": "08/02/1979", "gnis:feature_id": "1172263", "gnis:state_id": "42", "name": "Comly School"}}, {"type": "node", "id": 357281795, "lat": 39.9943321, "lon": -75.1146897, "tags": {"alt_name": "Conwell School", "amenity": "school", "ele": "9", "gnis:county_id": "101", "gnis:created": "08/02/1979", "gnis:feature_id": "1172378", "gnis:state_id": "42", "name": "Conwell Middle Magnet School"}}, {"type": "node", "id": 357281839, "lat": 39.9702647, "lon": -75.2454989, "tags": {"amenity": "place_of_worship", "ele": "41", "gnis:county_id": "101", "gnis:created": "08/02/1979", "gnis:feature_id": "1172420", "gnis:state_id": "42", "name": "Cooper Church", "religion": "christian"}}, {"type": "node", "id": 357281898, "lat": 39.9651315, "lon": -75.1561852, "tags": {"amenity": "school", "ele": "16", "gnis:county_id": "101", "gnis:created": "08/02/1979", "gnis:feature_id": "1172467", "gnis:state_id": "42", "name": "Spring Garden School", "old_name": "Cornman School"}}, {"type": "node", "id": 357281926, "lat": 40.0043366, "lon": -75.1758414}, {"type": "node", "id": 357282174, "lat": 40.0342784, "lon": -75.1051745, "tags": {"amenity": "school", "ele": "33", "gnis:county_id": "101", "gnis:created": "08/02/1979", "gnis:feature_id": "1172673", "gnis:state_id": "42", "name": "Creighton School"}}, {"type": "node", "id": 357283327, "lat": 40.0282318, "lon": -75.0468629, "tags": {"amenity": "school", "ele": "19", "gnis:county_id": "101", "gnis:created": "08/02/1979", "gnis:feature_id": "1173300", "gnis:state_id": "42", "name": "Disston School"}}, {"type": "node", "id": 357283515, "lat": 39.976497, "lon": -75.1167434, "tags": {"amenity": "school", "comment": "Stephen A. Douglas High School closed in 2013", "ele": "4", "gnis:county_id": "101", "gnis:created": "08/02/1979", "gnis:feature_id": "1173424", "gnis:state_id": "42", "name": "Maritime Academy Charter High School", "old_name": "Stephen A. Douglas High School"}}, {"type": "node", "id": 357284336, "lat": 39.9934458, "lon": -75.1443435, "tags": {"amenity": "school", "ele": "34", "gnis:county_id": "101", "gnis:created": "08/02/1979", "gnis:feature_id": "1174024", "gnis:state_id": "42", "name": "Edison High School"}}, {"type": "node", "id": 357284349, "lat": 40.0728888, "lon": -75.1704541, "tags": {"amenity": "school", "ele": "106", "gnis:county_id": "101", "gnis:created": "08/02/1979", "gnis:feature_id": "1174029", "gnis:state_id": "42", "name": "(Franklin Spencer) F. S. Edmonds Elementary School"}}, {"type": "node", "id": 357284352, "lat": 40.0255863, "lon": -75.0871988}, {"type": "node", "id": 357284560, "lat": 40.0550678, "lon": -75.1385966, "tags": {"alt_name": "Elwood School", "amenity": "school", "ele": "68", "gnis:county_id": "101", "gnis:created": "08/02/1979", "gnis:feature_id": "1174193", "gnis:state_id": "42", "name": "Ellwood Elementary School"}}, {"type": "node", "id": 357284589, "lat": 40.0481671, "lon": -75.1443425, "tags": {"amenity": "school", "ele": "60", "gnis:county_id": "101", "gnis:created": "08/02/1979", "gnis:feature_id": "1174207", "gnis:state_id": "42", "name": "Emanuel School"}}, {"type": "node", "id": 357284791, "lat": 40.029861, "lon": -75.0618954, "tags": {"amenity": "school", "ele": "25", "gnis:county_id": "101", "gnis:created": "08/02/1979", "gnis:feature_id": "1174331", "gnis:state_id": "42", "name": "Ethan Allen School", "wikidata": "Q5402883"}}, {"type": "node", "id": 357285443, "lat": 40.0836429, "lon": -74.9689111, "tags": {"amenity": "place_of_worship", "ele": "25", "gnis:county_id": "101", "gnis:created": "08/02/1979", "gnis:feature_id": "1174559", "gnis:state_id": "42", "name": "Faith Church", "religion": "christian"}}, {"type": "node", "id": 357285566, "lat": 40.0668928, "lon": -75.051845, "tags": {"addr:city": "Philadelphia", "addr:housenumber": "8300", "addr:postcode": "19152", "addr:state": "PA", "addr:street": "Castor Avenue", "amenity": "school", "contact:phone": "+1-215-728-5009", "ele": "42", "gnis:county_id": "101", "gnis:created": "08/02/1979", "gnis:feature_id": "1174633", "gnis:state_id": "42", "name": "Farrell Elementary School", "operator": "The school district of Philadelphia", "operator:type": "public", "school": "elementary", "website": "https://farrell.philasd.org/"}}, {"type": "node", "id": 357285578, "lat": 40.0486097, "lon": -75.0236008, "tags": {"amenity": "school", "ele": "26", "gnis:county_id": "101", "gnis:created": "08/02/1979", "gnis:feature_id": "1174636", "gnis:state_id": "42", "name": "Father Judge High School", "school": "high_school", "wikidata": "Q5437612"}}, {"type": "node", "id": 357285643, "lat": 40.0246616, "lon": -75.1226625, "tags": {"amenity": "school", "ele": "36", "gnis:county_id": "101", "gnis:created": "08/02/1979", "gnis:feature_id": "1174677", "gnis:state_id": "42", "name": "Feltonville School"}}, {"type": "node", "id": 357285790, "lat": 40.0436273, "lon": -75.1191349, "tags": {"amenity": "school", "ele": "46", "gnis:county_id": "101", "gnis:created": "08/02/1979", "gnis:feature_id": "1174762", "gnis:state_id": "42", "name": "Finletter School"}}, {"type": "node", "id": 357285921, "lat": 40.026189, "lon": -75.1664508, "tags": {"alt_name": "Filter Academics Plus School", "amenity": "school", "ele": "64", "gnis:county_id": "101", "gnis:created": "08/02/1979", "gnis:feature_id": "1174853", "gnis:state_id": "42", "name": "Fitler School", "wikidata": "Q5455453"}}, {"type": "node", "id": 357285942, "lat": 39.973863, "lon": -75.2258518, "tags": {"amenity": "place_of_worship", "denomination": "baptist", "ele": "33", "gnis:county_id": "101", "gnis:created": "08/02/1979", "gnis:feature_id": "1174898", "gnis:state_id": "42", "name": "Bible Way Baptist Church", "religion": "christian"}}, {"type": "node", "id": 357285989, "lat": 40.0840764, "lon": -75.2162833}, {"type": "node", "id": 357286103, "lat": 40.0345751, "lon": -75.0360148, "tags": {"amenity": "school", "ele": "22", "gnis:county_id": "101", "gnis:created": "08/02/1979", "gnis:feature_id": "1175002", "gnis:state_id": "42", "name": "Forrest School"}}, {"type": "node", "id": 357286797, "lat": 39.9237741, "lon": -75.1505478, "tags": {"amenity": "school", "ele": "5", "gnis:county_id": "101", "gnis:created": "08/02/1979", "gnis:feature_id": "1175369", "gnis:state_id": "42", "name": "Horace Furness Junior High School"}}, {"type": "node", "id": 357288253, "lat": 40.0142904, "lon": -75.1558399, "tags": {"alt_name": "Mastery Charter School Simon Gratz High", "amenity": "school", "ele": "39", "gnis:county_id": "101", "gnis:created": "08/02/1979", "gnis:feature_id": "1175995", "gnis:state_id": "42", "name": "Mastery Charter at Simon Gratz High School", "old_name": "Gratz High School"}}, {"type": "node", "id": 357288503, "lat": 40.0954792, "lon": -75.0567672}, {"type": "node", "id": 357288962, "lat": 39.9812435, "lon": -75.1267828, "tags": {"alt_name": "Hackett School", "amenity": "school", "ele": "8", "gnis:county_id": "101", "gnis:created": "08/02/1979", "gnis:feature_id": "1176347", "gnis:state_id": "42", "name": "Horatio B. Hackett School"}}, {"type": "node", "id": 357289412, "lat": 40.0128641, "lon": -75.0743, "tags": {"amenity": "school", "ele": "10", "gnis:county_id": "101", "gnis:created": "08/02/1979", "gnis:feature_id": "1176510", "gnis:state_id": "42", "name": "Harding Junior High School"}}, {"type": "node", "id": 357289584, "lat": 39.947335, "lon": -75.2301813, "tags": {"alt_name": "Avery Harrington Elementary School", "amenity": "school", "ele": "30", "gnis:county_id": "101", "gnis:created": "08/02/1979", "gnis:feature_id": "1176569", "gnis:state_id": "42", "name": "Harrington School"}}, {"type": "node", "id": 357290101, "lat": 40.0119216, "lon": -75.0850981, "tags": {"amenity": "school", "ele": "17", "gnis:county_id": "101", "gnis:created": "08/02/1979", "gnis:feature_id": "1176846", "gnis:state_id": "42", "name": "Allen M. Stearne School", "old_name": "Henry School"}}, {"type": "node", "id": 357290105, "lat": 40.0464258, "lon": -75.1968565}, {"type": "node", "id": 357291059, "lat": 40.0602208, "lon": -75.1387709, "tags": {"amenity": "school", "ele": "68", "gnis:county_id": "101", "gnis:created": "08/02/1979", "gnis:feature_id": "1177243", "gnis:state_id": "42", "name": "Holy Angels School"}}, {"type": "node", "id": 357291188, "lat": 40.0617451, "lon": -75.1887264, "tags": {"addr:street": "E. Mt Airy Ave", "amenity": "school", "ele": "104", "gnis:county_id": "101", "gnis:created": "08/02/1979", "gnis:feature_id": "1177258", "gnis:state_id": "42", "name": "Holy Cross School"}}, {"type": "node", "id": 357291254, "lat": 40.032851, "lon": -75.2281734, "tags": {"amenity": "school", "ele": "66", "name": "Holy Family School"}}, {"type": "node", "id": 357291310, "lat": 40.0120245, "lon": -75.1008746, "tags": {"amenity": "school", "ele": "25", "gnis:county_id": "101", "gnis:created": "08/02/1979", "gnis:feature_id": "1177276", "gnis:state_id": "42", "name": "Holy Innocents School"}}, {"type": "node", "id": 357291755, "lat": 40.0084467, "lon": -75.1023571, "tags": {"amenity": "school", "ele": "25", "gnis:county_id": "101", "gnis:created": "08/02/1979", "gnis:feature_id": "1177406", "gnis:state_id": "42", "name": "Hopkinson School"}}, {"type": "node", "id": 357291898, "lat": 40.0593125, "lon": -75.1944126}, {"type": "node", "id": 357292065, "lat": 39.9849327, "lon": -75.1339762, "tags": {"amenity": "school", "ele": "11", "gnis:county_id": "101", "gnis:created": "08/02/1979", "gnis:feature_id": "1177611", "gnis:state_id": "42", "name": "El Centro de Estudiantes", "old_name": "Hunter School"}}, {"type": "node", "id": 357292360, "lat": 40.028723, "lon": -75.1304534, "tags": {"amenity": "school", "ele": "33", "gnis:county_id": "101", "gnis:created": "08/02/1979", "gnis:feature_id": "1177718", "gnis:state_id": "42", "name": "Incarnation School"}}, {"type": "node", "id": 357292915, "lat": 40.0826, "lon": -75.0383637, "tags": {"amenity": "school", "ele": "45", "gnis:county_id": "101", "gnis:created": "08/02/1979", "gnis:feature_id": "1177968", "gnis:state_id": "42", "name": "Jacobs School"}}, {"type": "node", "id": 357293110, "lat": 40.0743188, "lon": -75.2033945}, {"type": "node", "id": 357293393, "lat": 39.9860959, "lon": -75.1127123, "tags": {"alt_name": "Memphis Street Academy", "amenity": "school", "ele": "6", "gnis:county_id": "101", "gnis:created": "08/02/1979", "gnis:feature_id": "1178147", "gnis:state_id": "42", "name": "Memphis Street Academy Charter School at J.P. Jones", "old_name": "John Paul Jones Junior High School", "school": "high_school"}}, {"type": "node", "id": 357293490, "lat": 39.915113, "lon": -75.2410155, "tags": {"amenity": "place_of_worship", "ele": "19", "gnis:county_id": "101", "gnis:created": "08/02/1979", "gnis:feature_id": "1178231", "gnis:state_id": "42", "name": "Karmel Church", "religion": "christian"}}, {"type": "node", "id": 357293654, "lat": 40.0050919, "lon": -75.1541728, "tags": {"amenity": "school", "ele": "31", "gnis:county_id": "101", "gnis:created": "08/02/1979", "gnis:feature_id": "1178355", "gnis:state_id": "42", "name": "Kenderton Elementary"}}, {"type": "node", "id": 357293892, "lat": 40.0536699, "lon": -75.1525759, "tags": {"amenity": "school", "ele": "74", "gnis:county_id": "101", "gnis:created": "08/02/1979", "gnis:feature_id": "1178524", "gnis:state_id": "42", "name": "Building 21 Philadelphia", "old_name": "John L. Kinsey School", "website": "https://building21.philasd.org/", "wikipedia": "en:John L. Kinsey School"}}, {"type": "node", "id": 357294162, "lat": 40.0387228, "lon": -75.1540653, "tags": {"amenity": "school", "ele": "64", "gnis:county_id": "101", "gnis:created": "08/02/1979", "gnis:edited": "12/18/2006", "gnis:feature_id": "1178727", "gnis:state_id": "42", "name": "La Salle University"}}, {"type": "node", "id": 357294200, "lat": 39.9745571, "lon": -75.2224028, "tags": {"amenity": "school", "ele": "34", "gnis:county_id": "101", "gnis:created": "08/02/1979", "gnis:feature_id": "1178747", "gnis:state_id": "42", "name": "Lady of Angels School"}}, {"type": "node", "id": 357294827, "lat": 40.092453, "lon": -75.0488706, "tags": {"amenity": "place_of_worship", "ele": "39", "gnis:county_id": "101", "gnis:created": "08/02/1979", "gnis:feature_id": "1179154", "gnis:state_id": "42", "name": "Lehigh Church", "religion": "christian"}}, {"type": "node", "id": 357295269, "lat": 40.0132469, "lon": -75.1443049, "tags": {"amenity": "school", "ele": "34", "gnis:county_id": "101", "gnis:created": "08/02/1979", "gnis:feature_id": "1179547", "gnis:state_id": "42", "name": "Little Flower High School", "old_name": "Our Lady of Confidence School"}}, {"type": "node", "id": 357295646, "lat": 39.9407759, "lon": -75.2322624, "tags": {"alt_name": "William Longstreth Elementary School", "amenity": "school", "ele": "20", "gnis:county_id": "101", "gnis:created": "08/02/1979", "gnis:feature_id": "1179925", "gnis:state_id": "42", "name": "Longstreth School"}}, {"type": "node", "id": 357296128, "lat": 40.0003661, "lon": -75.1375477}, {"type": "node", "id": 357296137, "lat": 39.9855469, "lon": -75.2312752, "tags": {"alt_name": "Mann School", "amenity": "school", "ele": "69", "gnis:county_id": "101", "gnis:created": "08/02/1979", "gnis:feature_id": "1180278", "gnis:state_id": "42", "name": "Mastery Charter School at Mann Elementary School", "old_name": "William B. Mann School"}}, {"type": "node", "id": 357296457, "lat": 39.9128558, "lon": -75.163051, "tags": {"alt_name": "Mastery Charter School Thomas Elementary", "amenity": "school", "ele": "6", "gnis:county_id": "101", "gnis:created": "08/02/1979", "gnis:feature_id": "1180415", "gnis:state_id": "42", "name": "Thomas Elementary", "old_name": "Maris School"}}, {"type": "node", "id": 357296543, "lat": 40.0146882, "lon": -75.0874902, "tags": {"amenity": "school", "ele": "22", "gnis:county_id": "101", "gnis:created": "08/02/1979", "gnis:feature_id": "1180477", "gnis:state_id": "42", "name": "Marshall School"}}, {"type": "node", "id": 357296573, "lat": 39.9853903, "lon": -75.0971191, "tags": {"alt_name": "Martin School", "amenity": "school", "ele": "4", "gnis:county_id": "101", "gnis:created": "08/02/1979", "gnis:feature_id": "1180496", "gnis:state_id": "42", "name": "Alternative Middle Years at James Martin School"}}, {"type": "node", "id": 357296642, "lat": 39.9923207, "lon": -75.1119273, "tags": {"alt_name": "Mastbaum School", "amenity": "school", "ele": "9", "gnis:county_id": "101", "gnis:created": "08/02/1979", "gnis:feature_id": "1180538", "gnis:state_id": "42", "name": "Jules E. Mastbaum Area Vocational Technical School"}}, {"type": "node", "id": 357296652, "lat": 40.0095566, "lon": -75.0879519, "tags": {"amenity": "school", "ele": "14", "gnis:county_id": "101", "gnis:created": "08/02/1979", "gnis:feature_id": "1180543", "gnis:state_id": "42", "name": "Mater Dolorosa School"}}, {"type": "node", "id": 357296878, "lat": 40.0151666, "lon": -75.1375952, "tags": {"alt_name": "McClure School", "amenity": "school", "ele": "33", "gnis:county_id": "101", "gnis:created": "08/02/1979", "gnis:feature_id": "1180641", "gnis:state_id": "42", "name": "Alexander K. McClure Elementary School", "wikipedia": "en:Alexander K. McClure School"}}, {"type": "node", "id": 357297106, "lat": 39.9920694, "lon": -75.1815071, "tags": {"amenity": "school", "ele": "35", "gnis:county_id": "101", "gnis:created": "08/02/1979", "gnis:feature_id": "1180731", "gnis:state_id": "42", "historic:amenity": "school", "name": "McIntyre School"}}, {"type": "node", "id": 357297150, "lat": 39.9831888, "lon": -75.1411901, "tags": {"alt_name": "McKinley School", "amenity": "school", "ele": "16", "gnis:county_id": "101", "gnis:created": "08/02/1979", "gnis:feature_id": "1180755", "gnis:state_id": "42", "name": "McKinley William School"}}, {"type": "node", "id": 357297191, "lat": 39.9784459, "lon": -75.1651779, "tags": {"alt_name": "Meade School", "amenity": "school", "ele": "31", "gnis:county_id": "101", "gnis:created": "08/02/1979", "gnis:feature_id": "1180816", "gnis:state_id": "42", "name": "General George G. Meade School"}}, {"type": "node", "id": 357298219, "lat": 39.9367796, "lon": -75.2237922, "tags": {"alt_name": "Mitchell School", "amenity": "school", "ele": "24", "gnis:county_id": "101", "gnis:created": "08/02/1979", "gnis:feature_id": "1181377", "gnis:state_id": "42", "name": "Weir Mitchell Elementary School"}}, {"type": "node", "id": 357298876, "lat": 39.9755701, "lon": -75.1789071, "tags": {"alt_name": "Morris School", "amenity": "school", "ele": "31", "gnis:county_id": "101", "gnis:created": "08/02/1979", "gnis:feature_id": "1181578", "gnis:state_id": "42", "name": "Robert Morris School"}}, {"type": "node", "id": 357298903, "lat": 40.029545, "lon": -75.1295321, "tags": {"amenity": "school", "ele": "30", "gnis:county_id": "101", "gnis:created": "08/02/1979", "gnis:feature_id": "1181586", "gnis:state_id": "42", "name": "Morrison School"}}, {"type": "node", "id": 357299466, "lat": 39.9783572, "lon": -75.2438831, "tags": {"addr:city": "Philadelphia", "addr:housenumber": "6132-34", "addr:street": "West Jefferson Street", "alt_name": "Ninetieth Street Mt. Herman Church", "amenity": "place_of_worship", "check_date": "2023-06-09", "ele": "61", "gnis:county_id": "101", "gnis:created": "08/02/1979", "gnis:feature_id": "1181697", "gnis:state_id": "42", "name": "Mount Hermon Baptist Church", "religion": "christian", "website": "https://mounthermonbc.com/"}}, {"type": "node", "id": 357301082, "lat": 40.0008299, "lon": -75.1487853, "tags": {"amenity": "school", "ele": "29", "gnis:county_id": "101", "gnis:created": "08/02/1979", "gnis:feature_id": "1182070", "gnis:state_id": "42", "name": "High Road School of Philadelphia", "old_name": "Simon Muhr Work Training School; Muhr School"}}, {"type": "node", "id": 357302872, "lat": 40.0289416, "lon": -75.1237878, "tags": {"amenity": "school", "ele": "31", "gnis:county_id": "101", "gnis:created": "08/02/1979", "gnis:feature_id": "1182983", "gnis:state_id": "42", "name": "Olney Charter High School", "old_name": "Olney High School", "wikidata": "Q7088453"}}, {"type": "node", "id": 357302876, "lat": 40.0309674, "lon": -75.1206506, "tags": {"amenity": "school", "ele": "35", "gnis:county_id": "101", "gnis:created": "08/02/1979", "gnis:feature_id": "1182985", "gnis:state_id": "42", "name": "Olney Elementary School"}}, {"type": "node", "id": 357303037, "lat": 40.0792776, "lon": -74.9787801, "tags": {"amenity": "school", "ele": "24", "gnis:county_id": "101", "gnis:created": "08/02/1979", "gnis:feature_id": "1183099", "gnis:state_id": "42", "name": "Our Lady of Calvary School"}}, {"type": "node", "id": 357303072, "lat": 39.9847487, "lon": -75.2476359, "tags": {"amenity": "school", "ele": "67", "gnis:county_id": "101", "gnis:created": "08/02/1979", "gnis:feature_id": "1183103", "gnis:state_id": "42", "name": "Ad Prima Charter School", "old_name": "Our Lady of Lourdes School"}}, {"type": "node", "id": 357303077, "lat": 39.9682377, "lon": -75.2447142, "tags": {"amenity": "school", "ele": "37", "gnis:county_id": "101", "gnis:created": "08/02/1979", "gnis:feature_id": "1183105", "gnis:state_id": "42", "name": "Boys' Latin of Philadelphia Middle School", "old_name": "Our Lady of Rosary School"}}, {"type": "node", "id": 357303083, "lat": 39.9645572, "lon": -75.2282365, "tags": {"amenity": "school", "ele": "33", "gnis:county_id": "101", "gnis:created": "08/02/1979", "gnis:feature_id": "1183107", "gnis:state_id": "42", "name": "Our Lady of Victory School"}}, {"type": "node", "id": 357303089, "lat": 40.0265007, "lon": -75.037394, "tags": {"amenity": "school", "ele": "12", "gnis:county_id": "101", "gnis:created": "08/02/1979", "gnis:feature_id": "1183109", "gnis:state_id": "42", "name": "Our Lady of Consolation School"}}, {"type": "node", "id": 357303150, "lat": 40.0378894, "lon": -75.0626727, "tags": {"amenity": "school", "ele": "29", "gnis:county_id": "101", "gnis:created": "08/02/1979", "gnis:feature_id": "1183123", "gnis:state_id": "42", "name": "Our Lady of Ransom School"}}, {"type": "node", "id": 357303383, "lat": 40.0482133, "lon": -75.1617498, "tags": {"alt_name": "Pastorius School", "amenity": "school", "ele": "75", "gnis:county_id": "101", "gnis:created": "08/02/1979", "gnis:feature_id": "1183357", "gnis:state_id": "42", "name": "Francis D. Pastorius Elementary School"}}, {"type": "node", "id": 357303400, "lat": 39.9162628, "lon": -75.2365767, "tags": {"alt_name": "Patterson School", "amenity": "school", "ele": "16", "gnis:county_id": "101", "gnis:created": "08/02/1979", "gnis:feature_id": "1183380", "gnis:state_id": "42", "name": "John M. Patterson Elementary School"}}, {"type": "node", "id": 357303425, "lat": 39.9606683, "lon": -75.1471214, "tags": {"addr:city": "Philadelphia", "addr:housenumber": "500", "addr:postcode": "19123", "addr:state": "PA", "addr:street": "Spring Garden Street", "amenity": "bar", "brewery": "yes", "craft": "brewery", "gnis:county_id": "101", "microbrewery": "yes", "name": "Yards Brewing Company", "operator": "Yards Brewing Company", "restaurant": "yes", "website": "https://yardsbrewing.com/", "wikidata": "Q16903914", "wikipedia": "en:Yards Brewing Company"}}, {"type": "node", "id": 357303723, "lat": 40.0652502, "lon": -75.158927, "tags": {"alt_name": "Samuel Pennypacker Elementary School", "amenity": "school", "ele": "94", "gnis:county_id": "101", "gnis:created": "08/02/1979", "gnis:feature_id": "1183556", "gnis:state_id": "42", "name": "Pennypacker School"}}, {"type": "node", "id": 357304013, "lat": 39.9501128, "lon": -75.2068467, "tags": {"alt_name": "The City School: Spruce Hill Campus", "amenity": "school", "ele": "23", "gnis:county_id": "101", "gnis:created": "08/02/1979", "gnis:feature_id": "1183747", "gnis:state_id": "42", "name": "The City School at Spruce Hill", "old_name": "Pillar of Fire School", "website": "https://cityschool.org/campus/spruce-hill/"}}, {"type": "node", "id": 357305049, "lat": 39.9970398, "lon": -75.1405411, "tags": {"alt_name": "Potter School", "amenity": "school", "ele": "24", "gnis:county_id": "101", "gnis:created": "08/02/1979", "gnis:feature_id": "1184342", "gnis:state_id": "42", "name": "Potter-Thomas Elementary School"}}, {"type": "node", "id": 357305869, "lat": 39.9833102, "lon": -75.1103899, "tags": {"amenity": "school", "ele": "7", "gnis:county_id": "101", "gnis:created": "08/02/1979", "gnis:feature_id": "1185018", "gnis:state_id": "42", "name": "Richmond School", "wikidata": "Q7330985"}}, {"type": "node", "id": 357306653, "lat": 40.0586666, "lon": -75.1481908, "tags": {"alt_name": "Rowen School", "amenity": "school", "ele": "73", "gnis:county_id": "101", "gnis:created": "08/02/1979", "gnis:feature_id": "1185575", "gnis:state_id": "42", "name": "William Rowen Elementary School"}}, {"type": "node", "id": 357307010, "lat": 39.9638123, "lon": -75.1443101}, {"type": "node", "id": 357307032, "lat": 39.9848797, "lon": -75.1015564, "tags": {"amenity": "school", "ele": "6", "gnis:county_id": "101", "gnis:created": "08/02/1979", "gnis:feature_id": "1185740", "gnis:state_id": "42", "name": "Our Lady of Port Richmond Regional School", "old_name": "Saint Alberts School"}}, {"type": "node", "id": 357307075, "lat": 40.0273615, "lon": -75.1160395, "tags": {"amenity": "school", "ele": "30", "gnis:county_id": "101", "gnis:created": "08/02/1979", "gnis:feature_id": "1185751", "gnis:state_id": "42", "name": "Saint Ambrose School"}}, {"type": "node", "id": 357307248, "lat": 40.1023327, "lon": -74.972113, "tags": {"amenity": "school", "ele": "31", "gnis:county_id": "101", "gnis:created": "08/02/1979", "gnis:feature_id": "1185784", "gnis:state_id": "42", "name": "Saint Anselms School"}}, {"type": "node", "id": 357307286, "lat": 40.061712, "lon": -75.1539843, "tags": {"amenity": "school", "ele": "87", "gnis:county_id": "101", "gnis:created": "08/02/1979", "gnis:feature_id": "1185796", "gnis:state_id": "42", "name": "Saint Athanasius School"}}, {"type": "node", "id": 357307308, "lat": 39.9878905, "lon": -75.2315697, "tags": {"amenity": "school", "ele": "72", "gnis:county_id": "101", "gnis:created": "08/02/1979", "gnis:feature_id": "1185804", "gnis:state_id": "42", "name": "Laboratory Charter School of Communications and Languages", "old_name": "Saint Barbaras School"}}, {"type": "node", "id": 357307331, "lat": 40.017612, "lon": -75.0665619, "tags": {"amenity": "school", "ele": "16", "gnis:county_id": "101", "gnis:created": "08/02/1979", "gnis:feature_id": "1185812", "gnis:state_id": "42", "name": "Saint Bartholomews School"}}, {"type": "node", "id": 357307390, "lat": 40.033445, "lon": -75.0354493, "tags": {"amenity": "school", "ele": "21", "gnis:county_id": "101", "gnis:created": "08/02/1979", "gnis:feature_id": "1185834", "gnis:state_id": "42", "name": "Saint Bernard's School"}}, {"type": "node", "id": 357307412, "lat": 40.0112972, "lon": -75.1937966, "tags": {"amenity": "school", "ele": "37", "gnis:county_id": "101", "gnis:created": "08/02/1979", "gnis:feature_id": "1185843", "gnis:state_id": "42", "name": "Saint Bridgets School"}}, {"type": "node", "id": 357307421, "lat": 39.9739821, "lon": -75.2541814, "tags": {"amenity": "school", "ele": "44", "gnis:county_id": "101", "gnis:created": "08/02/1979", "gnis:feature_id": "1185846", "gnis:state_id": "42", "name": "Saint Callistus School"}}, {"type": "node", "id": 357307427, "lat": 39.9533323, "lon": -75.2479394, "tags": {"amenity": "school", "ele": "33", "gnis:county_id": "101", "gnis:created": "08/02/1979", "gnis:feature_id": "1185848", "gnis:state_id": "42", "name": "Saint Carthages School"}}, {"type": "node", "id": 357307461, "lat": 40.0537224, "lon": -74.9929474, "tags": {"amenity": "school", "ele": "24", "gnis:county_id": "101", "gnis:created": "08/02/1979", "gnis:feature_id": "1185859", "gnis:state_id": "42", "name": "Saint Catherines School"}}, {"type": "node", "id": 357307488, "lat": 40.076941, "lon": -75.0811894, "tags": {"amenity": "school", "ele": "66", "gnis:county_id": "101", "gnis:created": "08/02/1979", "gnis:feature_id": "1185867", "gnis:state_id": "42", "name": "Saint Cecilias School"}}, {"type": "node", "id": 357307544, "lat": 39.9184462, "lon": -75.2426823, "tags": {"amenity": "school", "ele": "18", "gnis:county_id": "101", "gnis:created": "08/02/1979", "gnis:feature_id": "1185889", "gnis:state_id": "42", "name": "Saint Clements School"}}, {"type": "node", "id": 357307572, "lat": 39.9957432, "lon": -75.1696097, "tags": {"amenity": "school", "ele": "32", "gnis:county_id": "101", "gnis:created": "08/02/1979", "gnis:feature_id": "1185893", "gnis:state_id": "42", "name": "Saint Martin de Porres School", "old_name": "Saint Columbia School"}}, {"type": "node", "id": 357307630, "lat": 40.046939, "lon": -75.0156386, "tags": {"amenity": "school", "ele": "24", "gnis:county_id": "101", "gnis:created": "08/02/1979", "gnis:feature_id": "1185913", "gnis:state_id": "42", "name": "Saint Dominic's School"}}, {"type": "node", "id": 357307633, "lat": 39.9697857, "lon": -75.2491332, "tags": {"amenity": "school", "ele": "49", "gnis:county_id": "101", "gnis:created": "08/02/1979", "gnis:feature_id": "1185914", "gnis:state_id": "42", "name": "Saint Frances Cabrini Regional Catholic School", "old_name": "Saint Donatos School"}}, {"type": "node", "id": 357307640, "lat": 39.9881681, "lon": -75.1451769, "tags": {"amenity": "school", "ele": "26", "gnis:county_id": "101", "gnis:created": "08/02/1979", "gnis:feature_id": "1185917", "gnis:state_id": "42", "name": "Saint Edwards School"}}, {"type": "node", "id": 357307681, "lat": 39.9826418, "lon": -75.1718569, "tags": {"amenity": "school", "name": "Acelero Learning - St. Elizabeth's", "old_name": "Saint Elizabeths School"}}, {"type": "node", "id": 357307777, "lat": 39.9477474, "lon": -75.2154751, "tags": {"addr:city": "Philadelphia", "addr:housenumber": "917", "addr:postcode": "19143", "addr:street": "South 47th Street", "amenity": "school", "gnis:feature_id": "1185952", "name": "Saint Francis de Sales School", "phone": "215-387-1749", "website": "https://www.desalesschool.net/"}}, {"type": "node", "id": 357307798, "lat": 39.9665353, "lon": -75.1768986, "tags": {"amenity": "school", "ele": "20", "gnis:county_id": "101", "gnis:created": "08/02/1979", "gnis:feature_id": "1185958", "gnis:state_id": "42", "name": "Saint Francis Xavier School"}}, {"type": "node", "id": 357307831, "lat": 39.9352595, "lon": -75.1937214, "tags": {"amenity": "school", "ele": "10", "gnis:county_id": "101", "gnis:created": "08/02/1979", "gnis:feature_id": "1185969", "gnis:state_id": "42", "name": "Saint Gabriel's School"}}, {"type": "node", "id": 357307899, "lat": 40.0447728, "lon": -75.1281559, "tags": {"amenity": "school", "ele": "55", "gnis:county_id": "101", "gnis:created": "08/02/1979", "gnis:feature_id": "1185989", "gnis:state_id": "42", "name": "Saint Helenas School"}}, {"type": "node", "id": 357307902, "lat": 40.0178268, "lon": -75.1350936, "tags": {"amenity": "school", "ele": "34", "gnis:county_id": "101", "gnis:created": "08/02/1979", "gnis:feature_id": "1185990", "gnis:state_id": "42", "name": "Cayuga Elementary School", "old_name": "Saint Henrys School"}}, {"type": "node", "id": 357307914, "lat": 40.0315006, "lon": -75.0337827, "tags": {"amenity": "school", "ele": "15", "gnis:county_id": "101", "gnis:created": "08/02/1979", "gnis:feature_id": "1185994", "gnis:state_id": "42", "name": "Saint Huberts High School"}}, {"type": "node", "id": 357307917, "lat": 40.0048345, "lon": -75.1312873, "tags": {"amenity": "school", "ele": "32", "gnis:county_id": "101", "gnis:created": "08/02/1979", "gnis:feature_id": "1185995", "gnis:state_id": "42", "name": "Saint Hughs School"}}, {"type": "node", "id": 357308056, "lat": 39.9544424, "lon": -75.1979886, "tags": {"amenity": "school", "ele": "27", "gnis:county_id": "101", "gnis:created": "08/02/1979", "gnis:feature_id": "1186031", "gnis:state_id": "42", "name": "Saint James School"}}, {"type": "node", "id": 357308108, "lat": 39.9980366, "lon": -75.1017666, "tags": {"amenity": "school", "ele": "9", "gnis:county_id": "101", "gnis:created": "08/02/1979", "gnis:feature_id": "1186040", "gnis:state_id": "42", "name": "Deep Roots Charter School", "old_name": "Saint Joan of Arc School"}}, {"type": "node", "id": 357308301, "lat": 39.9808707, "lon": -75.2430596, "tags": {"addr:city": "Philadelphia", "addr:housenumber": "6100", "addr:street": "West Columbia Avenue", "amenity": "place_of_worship", "check_date": "2023-06-09", "contact:facebook": "https://www.facebook.com/FCBFChurch", "ele": "64", "gnis:county_id": "101", "gnis:created": "08/02/1979", "gnis:feature_id": "1186092", "gnis:state_id": "42", "name": "Freedom Christian Bible Fellowship Church", "old_name": "Saint Johns Church", "phone": "+1 215-477-0800", "religion": "christian", "website": "https://www.freedomcbf.org"}}, {"type": "node", "id": 357308754, "lat": 40.0264025, "lon": -75.2217548, "tags": {"amenity": "school", "ele": "32", "name": "Saint Josephat School"}}, {"type": "node", "id": 357308981, "lat": 40.01539, "lon": -75.1543436, "tags": {"amenity": "school", "ele": "39", "gnis:county_id": "101", "gnis:created": "08/02/1979", "gnis:feature_id": "1186270", "gnis:state_id": "42", "name": "Saint Ladislaus School"}}, {"type": "node", "id": 357309006, "lat": 40.0215008, "lon": -75.0451722, "tags": {"amenity": "school", "ele": "11", "gnis:county_id": "101", "gnis:created": "08/02/1979", "gnis:feature_id": "1186279", "gnis:state_id": "42", "name": "Saint Leo's School"}}, {"type": "node", "id": 357309037, "lat": 40.0829479, "lon": -74.9754774, "tags": {"amenity": "place_of_worship", "ele": "29", "gnis:county_id": "101", "gnis:created": "08/02/1979", "gnis:feature_id": "1186289", "gnis:state_id": "42", "name": "Saint Lukes Church", "religion": "christian"}}, {"type": "node", "id": 357309103, "lat": 39.9723431, "lon": -75.1534652, "tags": {"addr:housenumber": "1012", "addr:postcode": "19122", "addr:street": "West Thompson Street", "amenity": "school", "ele": "18", "gnis:county_id": "101", "gnis:created": "08/02/1979", "gnis:feature_id": "1186310", "gnis:state_id": "42", "name": "St. Malachy Catholic School", "name:en": "St. Malachy Catholic School", "website": "https://stmalachyphila.independencemissionschools.org/", "wikidata": "Q8010439"}}, {"type": "node", "id": 357309109, "lat": 40.0553891, "lon": -75.0304489, "tags": {"amenity": "school", "ele": "33", "gnis:county_id": "101", "gnis:created": "08/02/1979", "gnis:feature_id": "1186312", "gnis:state_id": "42", "name": "Saint Margarets Vocational School"}}, {"type": "node", "id": 357309522, "lat": 40.0277071, "lon": -75.2233693, "tags": {"amenity": "school", "ele": "33", "name": "Saint Marys School"}}, {"type": "node", "id": 357309589, "lat": 39.964835, "lon": -75.2337924, "tags": {"alt_name": "Saint Matthew's AME Church", "amenity": "place_of_worship", "ele": "34", "gnis:county_id": "101", "gnis:created": "08/02/1979", "gnis:feature_id": "1186451", "gnis:state_id": "42", "name": "Saint Matthews Church", "religion": "christian"}}, {"type": "node", "id": 357309677, "lat": 40.0412226, "lon": -75.0496165, "tags": {"amenity": "school", "ele": "30", "gnis:county_id": "101", "gnis:created": "08/02/1979", "gnis:feature_id": "1186462", "gnis:state_id": "42", "name": "Saint Matthews School"}}, {"type": "node", "id": 357309697, "lat": 40.070111, "lon": -74.9818358, "tags": {"amenity": "place_of_worship", "ele": "25", "gnis:county_id": "101", "gnis:created": "08/02/1979", "gnis:feature_id": "1186469", "gnis:state_id": "42", "name": "Saint Michael Mission Center", "religion": "christian"}}, {"type": "node", "id": 357309846, "lat": 39.9212192, "lon": -75.1761598, "tags": {"alt_name": "Saint Monica Junior School", "amenity": "school", "ele": "6", "gnis:county_id": "101", "gnis:created": "08/02/1979", "gnis:feature_id": "1186507", "gnis:state_id": "42", "name": "Saint Monicas School"}}, {"type": "node", "id": 357310145, "lat": 40.1145547, "lon": -75.0207257, "tags": {"amenity": "place_of_worship", "ele": "66", "gnis:county_id": "101", "gnis:created": "08/02/1979", "gnis:feature_id": "1186579", "gnis:state_id": "42", "name": "Saint Pauls Church", "religion": "christian"}}, {"type": "node", "id": 357310677, "lat": 39.9689402, "lon": -75.2265423, "tags": {"alt_name": "Saint Philips Evangelical Church", "amenity": "place_of_worship", "ele": "29", "gnis:county_id": "101", "gnis:created": "08/02/1979", "gnis:feature_id": "1186691", "gnis:state_id": "42", "name": "Saint Philips Church", "religion": "christian"}}, {"type": "node", "id": 357310731, "lat": 40.0718524, "lon": -75.1669132, "tags": {"alt_name": "St. Raymond of Penafort School", "amenity": "school", "ele": "107", "gnis:county_id": "101", "gnis:created": "08/02/1979", "gnis:feature_id": "1186701", "gnis:state_id": "42", "name": "Saint Raymonds School"}}, {"type": "node", "id": 357310792, "lat": 39.9342263, "lon": -75.1807441, "tags": {"amenity": "school", "ele": "11", "gnis:county_id": "101", "gnis:created": "08/02/1979", "gnis:feature_id": "1186715", "gnis:state_id": "42", "name": "Saint Simons School"}}, {"type": "node", "id": 357310824, "lat": 39.9384462, "lon": -75.1482326, "tags": {"amenity": "school", "ele": "7", "gnis:county_id": "101", "gnis:created": "08/02/1979", "gnis:feature_id": "1186722", "gnis:state_id": "42", "name": "Saint Stanislaus School"}}, {"type": "node", "id": 357310875, "lat": 40.0114243, "lon": -75.1502553, "tags": {"amenity": "school", "ele": "35", "gnis:county_id": "101", "gnis:created": "08/02/1979", "gnis:feature_id": "1186731", "gnis:state_id": "42", "name": "Multi-Cultural Academy Charter High School", "old_name": "Saint Stephens School"}}, {"type": "node", "id": 357310996, "lat": 39.9753302, "lon": -75.2379214, "tags": {"amenity": "school", "ele": "43", "gnis:county_id": "101", "gnis:created": "08/02/1979", "gnis:feature_id": "1186763", "gnis:state_id": "42", "name": "St. Rose of Lima School", "old_name": "Saint Veronica of Lima School"}}, {"type": "node", "id": 357310998, "lat": 40.0062234, "lon": -75.1407321, "tags": {"amenity": "school", "ele": "29", "gnis:county_id": "101", "gnis:created": "08/02/1979", "gnis:feature_id": "1186764", "gnis:state_id": "42", "name": "Saint Veronicas School"}}, {"type": "node", "id": 357311028, "lat": 40.0423338, "lon": -75.1668436, "tags": {"amenity": "school", "ele": "70", "gnis:county_id": "101", "gnis:created": "08/02/1979", "gnis:feature_id": "1186777", "gnis:state_id": "42", "name": "Saint Vincents Seminary", "wikidata": "Q7592072"}}, {"type": "node", "id": 357311047, "lat": 40.0482615, "lon": -75.0972351, "tags": {"amenity": "school", "ele": "42", "gnis:county_id": "101", "gnis:created": "08/02/1979", "gnis:feature_id": "1186784", "gnis:state_id": "42", "name": "Saint Williams School"}}, {"type": "node", "id": 357311620, "lat": 40.0903885, "lon": -74.9723909, "tags": {"amenity": "school", "ele": "30", "gnis:county_id": "101", "gnis:created": "08/02/1979", "gnis:feature_id": "1187070", "gnis:state_id": "42", "name": "Schallcross School"}}, {"type": "node", "id": 357312080, "lat": 39.9187241, "lon": -75.1510105, "tags": {"alt_name": "Sharswood School", "amenity": "school", "ele": "5", "gnis:county_id": "101", "gnis:created": "08/02/1979", "gnis:feature_id": "1187385", "gnis:state_id": "42", "name": "George Sharswood School"}}, {"type": "node", "id": 357312093, "lat": 39.9415968, "lon": -75.2263701, "tags": {"addr:city": "Philadelphia", "addr:housenumber": "5400", "addr:postcode": "19143", "addr:state": "PA", "addr:street": "Warrington Avenue", "alt_name": "Hardy Williams Elementary School", "amenity": "school", "ele": "23", "gnis:county_id": "101", "gnis:created": "08/02/1979", "gnis:feature_id": "1187395", "gnis:state_id": "42", "name": "Mastery Charter School: Hardy Williams Campus", "old_name": "Anna Howard Shaw Junior High School", "wikipedia": "en:Hardy Williams Academy"}}, {"type": "node", "id": 357312379, "lat": 39.975946, "lon": -75.2285142, "tags": {"amenity": "school", "ele": "37", "gnis:county_id": "101", "gnis:created": "08/02/1979", "gnis:feature_id": "1187577", "gnis:state_id": "42", "name": "Shoemaker Junior High School"}}, {"type": "node", "id": 357312791, "lat": 40.0195564, "lon": -75.0737845, "tags": {"amenity": "school", "ele": "13", "gnis:county_id": "101", "gnis:created": "08/02/1979", "gnis:feature_id": "1187845", "gnis:state_id": "42", "name": "Smedley School"}}, {"type": "node", "id": 357313564, "lat": 40.0605844, "lon": -75.2121581}, {"type": "node", "id": 357313706, "lat": 39.9920171, "lon": -75.1582034, "tags": {"amenity": "school", "ele": "30", "gnis:county_id": "101", "gnis:created": "08/02/1979", "gnis:feature_id": "1188401", "gnis:state_id": "42", "name": "KIPP Philadelphia Preparatory Academy - Rowan Campus", "old_name": "Edwin M. Stanton Middle School"}}, {"type": "node", "id": 357314736, "lat": 40.0186369, "lon": -75.1573342, "tags": {"amenity": "school", "ele": "34", "gnis:county_id": "101", "gnis:created": "08/02/1979", "gnis:feature_id": "1188582", "gnis:state_id": "42", "name": "Edward T. Steel School"}}, {"type": "node", "id": 357314830, "lat": 40.0957064, "lon": -74.9705134, "tags": {"amenity": "school", "ele": "25", "gnis:county_id": "101", "gnis:created": "08/02/1979", "gnis:feature_id": "1188605", "gnis:state_id": "42", "name": "Stephen Decatur School"}}, {"type": "node", "id": 357314886, "lat": 40.0768909, "lon": -75.2146038}, {"type": "node", "id": 357315485, "lat": 40.0159362, "lon": -75.0670134, "tags": {"amenity": "school", "ele": "13", "gnis:county_id": "101", "gnis:created": "08/02/1979", "gnis:feature_id": "1189004", "gnis:state_id": "42", "name": "Sullivan School"}}, {"type": "node", "id": 357315494, "lat": 39.9651567, "lon": -75.2163667}, {"type": "node", "id": 357316002, "lat": 40.0070971, "lon": -75.1381122, "tags": {"amenity": "school", "ele": "32", "gnis:county_id": "101", "gnis:created": "08/02/1979", "gnis:feature_id": "1189317", "gnis:state_id": "42", "name": "Bayard Taylor Elementary School"}}, {"type": "node", "id": 357316019, "lat": 40.1028883, "lon": -75.0512825, "tags": {"amenity": "place_of_worship", "ele": "49", "gnis:county_id": "101", "gnis:created": "08/02/1979", "gnis:feature_id": "1189346", "gnis:state_id": "42", "name": "Temple Beth-Torah", "religion": "jewish"}}, {"type": "node", "id": 357316037, "lat": 40.0335717, "lon": -75.0793594, "tags": {"amenity": "place_of_worship", "ele": "28", "gnis:county_id": "101", "gnis:created": "08/02/1979", "gnis:feature_id": "1189354", "gnis:state_id": "42", "name": "Temple Sholom", "religion": "jewish"}}, {"type": "node", "id": 357316424, "lat": 39.9216354, "lon": -75.2322913, "tags": {"amenity": "school", "ele": "18", "gnis:county_id": "101", "gnis:created": "08/02/1979", "gnis:feature_id": "1189569", "gnis:state_id": "42", "name": "Tilden Junior High School"}}, {"type": "node", "id": 357318711, "lat": 39.976136, "lon": -75.1742104, "tags": {"alt_name": "Vaux Junior High School", "amenity": "school", "ele": "30", "gnis:county_id": "101", "gnis:created": "08/02/1979", "gnis:feature_id": "1190371", "gnis:state_id": "42", "name": "The Promise Academy at Roberts Vaux High School", "old_name": "Roberts Vaux Junior High School"}}, {"type": "node", "id": 357318940, "lat": 40.0516004, "lon": -75.1476834, "tags": {"alt_name": "General Louis Wagner Middle School", "amenity": "school", "ele": "68", "gnis:county_id": "101", "gnis:created": "08/02/1979", "gnis:feature_id": "1190471", "gnis:state_id": "42", "name": "Wagner Junior High School"}}, {"type": "node", "id": 357319516, "lat": 39.9871015, "lon": -75.1391046, "tags": {"alt_name": "Welsh School", "amenity": "school", "ele": "19", "gnis:county_id": "101", "gnis:created": "08/02/1979", "gnis:feature_id": "1190819", "gnis:state_id": "42", "name": "John Welsh Elementary School"}}, {"type": "node", "id": 357320455, "lat": 39.9932725, "lon": -75.1163289, "tags": {"amenity": "school", "ele": "9", "gnis:county_id": "101", "gnis:created": "08/02/1979", "gnis:feature_id": "1191445", "gnis:state_id": "42", "name": "Willard School"}}, {"type": "node", "id": 357320972, "lat": 39.9904193, "lon": -75.1775471, "tags": {"alt_name": "Wright School", "amenity": "school", "ele": "32", "gnis:county_id": "101", "gnis:created": "08/02/1979", "gnis:feature_id": "1191805", "gnis:state_id": "42", "name": "Richard R. Wright Elementary School"}}, {"type": "node", "id": 357321940, "lat": 39.990946, "lon": -75.2329587, "tags": {"amenity": "place_of_worship", "ele": "74", "gnis:county_id": "101", "gnis:created": "08/02/1979", "gnis:feature_id": "1192584", "gnis:state_id": "42", "name": "Har Zion Temple", "religion": "jewish"}}, {"type": "node", "id": 357323050, "lat": 39.9740014, "lon": -75.2679612, "tags": {"amenity": "place_of_worship", "ele": "63", "gnis:county_id": "101", "gnis:created": "08/02/1979", "gnis:feature_id": "1193517", "gnis:state_id": "42", "name": "Overbrook Park Church of Christ", "old_name": "Temple Beth T' Fillah", "religion": "christian"}}, {"type": "node", "id": 357337036, "lat": 39.9482235, "lon": -75.2185172, "tags": {"amenity": "place_of_worship", "ele": "30", "gnis:county_id": "101", "gnis:created": "08/30/1990", "gnis:feature_id": "1200157", "gnis:state_id": "42", "name": "Calvary Center for Culture and Community", "religion": "christian"}}, {"type": "node", "id": 357352000, "lat": 39.9817794, "lon": -75.2454609, "tags": {"amenity": "school", "ele": "65", "gnis:county_id": "101", "gnis:created": "02/01/1990", "gnis:feature_id": "1207783", "gnis:state_id": "42", "name": "Overbrook Elementary School", "wikidata": "Q7113574"}}, {"type": "node", "id": 357352053, "lat": 39.9459461, "lon": -75.2079579, "tags": {"amenity": "school", "ele": "10", "gnis:county_id": "101", "gnis:created": "02/01/1990", "gnis:feature_id": "1207789", "gnis:state_id": "42", "name": "Philadelphia College of Pharmacy"}}, {"type": "node", "id": 357352062, "lat": 39.9571421, "lon": -75.2118312, "tags": {"amenity": "school", "ele": "30", "gnis:county_id": "101", "gnis:created": "02/01/1990", "gnis:feature_id": "1207790", "gnis:state_id": "42", "name": "West Catholic Preparatory High School", "old_name": "West Philadelphia Catholic High School", "wikidata": "Q7986213"}}, {"type": "node", "id": 357352080, "lat": 39.9545278, "lon": -75.2163501, "tags": {"alt_name": "Henry C. Lea Elementary School", "amenity": "school", "ele": "25", "gnis:county_id": "101", "gnis:created": "02/01/1990", "gnis:feature_id": "1207792", "gnis:state_id": "42", "name": "Lea Elementary School"}}, {"type": "node", "id": 357352090, "lat": 39.9467801, "lon": -75.2456512, "tags": {"alt_name": "Anderson Elementary School", "amenity": "school", "ele": "28", "gnis:county_id": "101", "gnis:created": "02/01/1990", "gnis:feature_id": "1207793", "gnis:state_id": "42", "name": "Add B. Anderson Elementary School"}}, {"type": "node", "id": 357352100, "lat": 39.9938281, "lon": -75.2230994, "tags": {"amenity": "place_of_worship", "ele": "72", "name": "Christ Church", "religion": "christian"}}, {"type": "node", "id": 357352307, "lat": 40.0851108, "lon": -74.9729465, "tags": {"amenity": "school", "ele": "30", "gnis:county_id": "101", "gnis:created": "03/01/1990", "gnis:feature_id": "1207889", "gnis:state_id": "42", "name": "Katherine Drexel Rush Middle School"}}, {"type": "node", "id": 357352321, "lat": 40.0734443, "lon": -74.9862804, "tags": {"amenity": "school", "ele": "16", "gnis:county_id": "101", "gnis:created": "03/01/1990", "gnis:feature_id": "1207891", "gnis:state_id": "42", "name": "Labrum Middle School"}}, {"type": "node", "id": 357352346, "lat": 40.056204, "lon": -75.0305498, "tags": {"amenity": "school", "ele": "33", "gnis:county_id": "101", "gnis:created": "03/01/1990", "gnis:feature_id": "1207895", "gnis:state_id": "42", "name": "Saint Jerome School"}}, {"type": "node", "id": 357352351, "lat": 40.0599035, "lon": -75.0275861, "tags": {"alt_name": "Robert B. Pollock Elementary School", "amenity": "school", "ele": "29", "gnis:county_id": "101", "gnis:created": "03/01/1990", "gnis:feature_id": "1207896", "gnis:state_id": "42", "name": "Pollock Elementary School"}}, {"type": "node", "id": 357352360, "lat": 40.0889996, "lon": -75.0343376, "tags": {"amenity": "school", "ele": "49", "gnis:county_id": "101", "gnis:created": "03/01/1990", "gnis:feature_id": "1207897", "gnis:state_id": "42", "name": "Bustleton Elementary School"}}, {"type": "node", "id": 357352409, "lat": 39.9810422, "lon": -75.110336, "tags": {"amenity": "place_of_worship", "ele": "6", "gnis:county_id": "101", "gnis:created": "03/01/1990", "gnis:feature_id": "1207919", "gnis:state_id": "42", "name": "Mother of Divine Grace Church", "religion": "christian"}}, {"type": "node", "id": 357352453, "lat": 40.0812512, "lon": -75.0512381, "tags": {"addr:city": "Philadelphia", "addr:housenumber": "8732", "addr:postcode": "19115", "addr:state": "PA", "addr:street": "Krewstown Road", "amenity": "place_of_worship", "denomination": "baptist", "ele": "46", "name": "Pennepack Baptist Church", "phone": "+1-215-673-4410", "religion": "christian", "website": "https://www.pennepackbaptist.org/"}}, {"type": "node", "id": 357352552, "lat": 39.9870595, "lon": -75.1053653, "tags": {"amenity": "place_of_worship", "ele": "6", "gnis:county_id": "101", "gnis:created": "03/01/1990", "gnis:feature_id": "1207953", "gnis:state_id": "42", "name": "Our Lady Help of Christians Church", "religion": "christian", "wikidata": "Q7110717"}}, {"type": "node", "id": 357352559, "lat": 40.0920771, "lon": -75.0531023}, {"type": "node", "id": 357352631, "lat": 40.0921051, "lon": -75.0139106, "tags": {"alt_name": "Swenson Skills Center", "amenity": "school", "ele": "45", "gnis:county_id": "101", "gnis:created": "03/01/1990", "gnis:feature_id": "1207969", "gnis:state_id": "42", "name": "Swenson Arts and Technology High School", "wikidata": "Q7655886"}}, {"type": "node", "id": 357352737, "lat": 40.0064556, "lon": -75.1295159, "tags": {"amenity": "school", "ele": "33", "gnis:county_id": "101", "gnis:created": "03/01/1990", "gnis:feature_id": "1208004", "gnis:state_id": "42", "name": "Roberto Clemente Middle School"}}, {"type": "node", "id": 357352750, "lat": 40.0317786, "lon": -75.1796222, "tags": {"amenity": "school", "ele": "73", "gnis:county_id": "101", "gnis:created": "03/01/1990", "gnis:feature_id": "1208006", "gnis:state_id": "42", "name": "Mastery Charter School Pickett Campus", "old_name": "Pickett Middle School"}}, {"type": "node", "id": 357352757, "lat": 40.0032896, "lon": -75.2104172}, {"type": "node", "id": 357352774, "lat": 40.0084456, "lon": -75.1404542, "tags": {"amenity": "place_of_worship", "ele": "32", "gnis:county_id": "101", "gnis:created": "03/01/1990", "gnis:feature_id": "1208012", "gnis:state_id": "42", "name": "Our Lady of Pompeii Church", "religion": "christian"}}, {"type": "node", "id": 357352814, "lat": 40.0248342, "lon": -75.2199735, "tags": {"amenity": "place_of_worship", "check_date": "2023-10-08", "denomination": "baptist", "ele": "28", "name": "Saint John the Baptist Church", "religion": "christian", "wikidata": "Q23302334", "wikipedia": "en:St. John the Baptist Roman Catholic Church, Manayunk"}}, {"type": "node", "id": 357352848, "lat": 40.049928, "lon": -75.1615154, "tags": {"amenity": "place_of_worship", "ele": "73", "gnis:county_id": "101", "gnis:created": "03/01/1990", "gnis:feature_id": "1208030", "gnis:state_id": "42", "name": "Immaculate Conception Church", "religion": "christian"}}, {"type": "node", "id": 357355640, "lat": 39.9357739, "lon": -75.1472703, "tags": {"amenity": "school", "ele": "6", "gnis:county_id": "101", "gnis:created": "08/02/1979", "gnis:feature_id": "1209056", "gnis:state_id": "42", "historic:amenity": "school", "name": "Saint Philip School"}}, {"type": "node", "id": 357365611, "lat": 39.9526851, "lon": -75.2428714, "tags": {"alt_name": "Bryant Elementary School; William Cullen Bryant Promise Academy", "amenity": "school", "ele": "31", "gnis:county_id": "101", "gnis:created": "08/30/1990", "gnis:feature_id": "1213822", "gnis:state_id": "42", "name": "William C. Bryant Elementary School"}}, {"type": "node", "id": 357365734, "lat": 39.9555997, "lon": -75.2355555, "tags": {"alt_name": "Andrew Hamilton Elementary School", "amenity": "school", "ele": "30", "gnis:county_id": "101", "gnis:created": "08/30/1990", "gnis:feature_id": "1213852", "gnis:state_id": "42", "name": "Hamilton Elementary School"}}, {"type": "node", "id": 357365745, "lat": 39.9488763, "lon": -75.2356909, "tags": {"alt_name": "Harrity Elementary School", "amenity": "school", "ele": "25", "gnis:county_id": "101", "gnis:created": "08/30/1990", "gnis:feature_id": "1213854", "gnis:state_id": "42", "name": "Mastery Charter School Harrity Elementary"}}, {"type": "node", "id": 357365782, "lat": 39.9534086, "lon": -75.2265784, "tags": {"alt_name": "Samuel B. Huey Elementary School", "amenity": "school", "ele": "30", "gnis:county_id": "101", "gnis:created": "08/30/1990", "gnis:feature_id": "1213860", "gnis:state_id": "42", "name": "Global Leadership Academy Charter School", "old_name": "Huey Elementary School"}}, {"type": "node", "id": 357370431, "lat": 39.9775572, "lon": -75.1813927, "tags": {"amenity": "place_of_worship", "ele": "29", "gnis:county_id": "101", "gnis:created": "01/07/2006", "gnis:feature_id": "2082722", "gnis:state_id": "42", "name": "Acts of the Apostles Church in Jesus Christ", "religion": "christian"}}, {"type": "node", "id": 357371233, "lat": 39.9570511, "lon": -75.2059027, "tags": {"amenity": "school", "ele": "24", "gnis:county_id": "101", "gnis:created": "08/23/2007", "gnis:feature_id": "2347031", "gnis:state_id": "42", "name": "Paul Robeson High School for Human Services", "old_name": "Bartram Human Services High School", "wikipedia": "en:Paul Robeson High School for Human Services"}}, {"type": "node", "id": 357371238, "lat": 39.9446889, "lon": -75.2426844, "tags": {"amenity": "school", "comment": "school moved to new location here from Read School", "ele": "6", "gnis:county_id": "101", "gnis:created": "08/23/2007", "gnis:feature_id": "2347032", "gnis:state_id": "42", "name": "Motivation High School", "old_name": "Bartram Motivation High School", "website": "https://motivationhs.philasd.org/", "wikipedia": "en:Motivation High School"}}, {"type": "node", "id": 357371451, "lat": 39.9978329, "lon": -75.0744278}, {"type": "node", "id": 357371617, "lat": 40.0887, "lon": -75.034, "tags": {"amenity": "place_of_worship", "denomination": "methodist", "ele": "49", "gnis:county_id": "101", "gnis:created": "08/23/2007", "gnis:feature_id": "2347345", "gnis:state_id": "42", "name": "Bustleton United Methodist", "religion": "christian"}}, {"type": "node", "id": 357371673, "lat": 40.0495722, "lon": -75.0920175, "tags": {"amenity": "school", "ele": "40", "gnis:county_id": "101", "gnis:created": "08/23/2007", "gnis:feature_id": "2347411", "gnis:state_id": "42", "name": "Cedar Grove Christian Academy", "wikidata": "Q6503697"}}, {"type": "node", "id": 357371679, "lat": 40.0305521, "lon": -75.1170298, "tags": {"amenity": "school", "ele": "34", "gnis:county_id": "101", "gnis:created": "08/23/2007", "gnis:feature_id": "2347413", "gnis:state_id": "42", "name": "International Christian High School"}}, {"type": "node", "id": 357371699, "lat": 40.0208987, "lon": -75.120978, "tags": {"amenity": "school", "ele": "31", "gnis:county_id": "101", "gnis:created": "08/23/2007", "gnis:feature_id": "2347439", "gnis:state_id": "42", "name": "Feltonville Intermediate School"}}, {"type": "node", "id": 357371754, "lat": 40.0745, "lon": -75.2054, "tags": {"amenity": "post_office", "ele": "128", "gnis:county_id": "101", "gnis:created": "08/23/2007", "gnis:edited": "10/23/2007", "gnis:feature_id": "2347514", "gnis:state_id": "42", "name": "Chestnut Hill Station Post Office"}}, {"type": "node", "id": 357371966, "lat": 39.9897, "lon": -75.2491, "tags": {"amenity": "school", "ele": "66", "gnis:county_id": "101", "gnis:created": "08/23/2007", "gnis:feature_id": "2347702", "gnis:state_id": "42", "name": "Ash Shahid Islamic Private School"}}, {"type": "node", "id": 357372034, "lat": 39.9599152, "lon": -75.1697328, "tags": {"addr:city": "Philadelphia", "addr:housenumber": "311", "addr:postcode": "19103", "addr:street": "North 19th Street", "alt_name": "Hallahan Catholic Girls High School", "amenity": "school", "ele": "9", "gnis:county_id": "101", "gnis:created": "08/23/2007", "gnis:feature_id": "2347761", "gnis:state_id": "42", "name": "John W. Hallahan Catholic Girls High School", "old_name": "Cathedral School"}}, {"type": "node", "id": 357372136, "lat": 40.025108, "lon": -75.087643}, {"type": "node", "id": 357372153, "lat": 39.9776665, "lon": -75.2296434, "tags": {"alt_name": "Heston School", "amenity": "school", "ele": "41", "gnis:county_id": "101", "gnis:created": "08/23/2007", "gnis:feature_id": "2347851", "gnis:state_id": "42", "name": "Howard Heston Elementary School"}}, {"type": "node", "id": 357372177, "lat": 40.0718176, "lon": -75.1746812, "tags": {"alt_name": "Hill Freedman School", "amenity": "school", "ele": "96", "gnis:county_id": "101", "gnis:created": "08/23/2007", "gnis:feature_id": "2347887", "gnis:state_id": "42", "name": "Hill-Freedman World Academy"}}, {"type": "node", "id": 357372188, "lat": 40.0440398, "lon": -75.0226735, "tags": {"amenity": "post_office", "ele": "18", "gnis:county_id": "101", "gnis:created": "08/23/2007", "gnis:edited": "10/23/2007", "gnis:feature_id": "2347913", "gnis:state_id": "42", "name": "Holmesburg Finance Station Post Office"}}, {"type": "node", "id": 357372264, "lat": 39.9707906, "lon": -75.2177069, "tags": {"amenity": "school", "ele": "30", "gnis:county_id": "101", "gnis:created": "08/23/2007", "gnis:feature_id": "2348007", "gnis:state_id": "42", "name": "Our Mother of Sorrows School", "old_name": "Creative World Christian Academy"}}, {"type": "node", "id": 357372306, "lat": 39.9651878, "lon": -75.2323881, "tags": {"amenity": "school", "ele": "34", "gnis:county_id": "101", "gnis:created": "08/23/2007", "gnis:feature_id": "2348040", "gnis:state_id": "42", "name": "Universal Daroff Charter School", "old_name": "Daroff Elementary School; Samuel H. Daroff Public School"}}, {"type": "node", "id": 357372311, "lat": 39.9921009, "lon": -75.1391675}, {"type": "node", "id": 357372429, "lat": 40.0241, "lon": -75.1709, "tags": {"amenity": "school", "ele": "70", "gnis:county_id": "101", "gnis:created": "08/23/2007", "gnis:feature_id": "2348145", "gnis:state_id": "42", "name": "Eagles Nest Christian School"}}, {"type": "node", "id": 357372451, "lat": 40.0550953, "lon": -75.1545516, "tags": {"amenity": "post_office", "ele": "75", "gnis:county_id": "101", "gnis:created": "08/23/2007", "gnis:edited": "10/23/2007", "gnis:feature_id": "2348159", "gnis:state_id": "42", "name": "East Germantown Station Post Office"}}, {"type": "node", "id": 357372659, "lat": 40.0558, "lon": -75.1417, "tags": {"amenity": "school", "ele": "70", "gnis:county_id": "101", "gnis:created": "08/23/2007", "gnis:feature_id": "2348298", "gnis:state_id": "42", "name": "Fern Rock Community Baptist School"}}, {"type": "node", "id": 357372809, "lat": 40.0296191, "lon": -75.1687413, "tags": {"amenity": "post_office", "ele": "71", "gnis:county_id": "101", "gnis:created": "08/23/2007", "gnis:edited": "10/23/2007", "gnis:feature_id": "2348425", "gnis:state_id": "42", "name": "Germantown Station Post Office"}}, {"type": "node", "id": 357372813, "lat": 39.9844952, "lon": -75.1803836, "tags": {"amenity": "school", "ele": "30", "gnis:county_id": "101", "gnis:created": "08/23/2007", "gnis:feature_id": "2348426", "gnis:state_id": "42", "name": "Edward Gideon Elementary School"}}, {"type": "node", "id": 357372910, "lat": 40.0331567, "lon": -75.1746862, "tags": {"addr:city": "Philadelphia", "addr:housenumber": "5511", "addr:postcode": "19144", "addr:street": "Greene Street", "amenity": "school", "ele": "72", "gnis:county_id": "101", "gnis:created": "08/23/2007", "gnis:feature_id": "2348547", "gnis:state_id": "42", "name": "Greene Street Friends School", "website": "https://greenestreetfriends.org/", "wikidata": "Q16891877"}}, {"type": "node", "id": 357372916, "lat": 40.0352838, "lon": -75.1180598, "tags": {"amenity": "school", "ele": "39", "gnis:county_id": "101", "gnis:created": "08/23/2007", "gnis:feature_id": "2348555", "gnis:state_id": "42", "name": "Grover Washington Junior Middle School"}}, {"type": "node", "id": 357372921, "lat": 39.9734086, "lon": -75.2358827, "tags": {"amenity": "school", "ele": "39", "gnis:county_id": "101", "gnis:created": "08/23/2007", "gnis:feature_id": "2348558", "gnis:state_id": "42", "name": "Universal Bluford Charter School", "old_name": "Guion S Bluford Elementary School; William B. Hanna School"}}, {"type": "node", "id": 357372990, "lat": 40.0381087, "lon": -75.1901078}, {"type": "node", "id": 357373001, "lat": 40.0473778, "lon": -75.1433623, "tags": {"amenity": "post_office", "ele": "63", "gnis:county_id": "101", "gnis:created": "08/23/2007", "gnis:edited": "10/23/2007", "gnis:feature_id": "2348653", "gnis:state_id": "42", "name": "Logan Station Post Office", "operator": "United States Postal Service", "operator:short": "USPS", "operator:type": "public", "operator:wikidata": "Q668687", "operator:wikipedia": "en:United States Postal Service", "short_name": "USPS"}}, {"type": "node", "id": 357373041, "lat": 40.0022175, "lon": -75.1355551, "tags": {"amenity": "school", "ele": "27", "gnis:county_id": "101", "gnis:created": "08/23/2007", "gnis:feature_id": "2348692", "gnis:state_id": "42", "name": "Luis Munoz Martin Elementary School"}}, {"type": "node", "id": 357373044, "lat": 40.0619908, "lon": -75.1900181}, {"type": "node", "id": 357373123, "lat": 40.0376, "lon": -75.0421, "tags": {"amenity": "post_office", "ele": "29", "gnis:county_id": "101", "gnis:created": "08/23/2007", "gnis:edited": "10/23/2007", "gnis:feature_id": "2348780", "gnis:state_id": "42", "name": "Mayfair Post Office"}}, {"type": "node", "id": 357373154, "lat": 40.0142174, "lon": -75.1532631}, {"type": "node", "id": 357373188, "lat": 39.9931443, "lon": -75.1578958, "tags": {"amenity": "post_office", "ele": "31", "gnis:county_id": "101", "gnis:created": "08/23/2007", "gnis:edited": "10/23/2007", "gnis:feature_id": "2348849", "gnis:state_id": "42", "name": "North Philadelphia West Post Office", "operator": "United States Postal Service", "operator:type": "public", "operator:wikidata": "Q668687", "operator:wikipedia": "en:United States Postal Service", "short_name": "USPS"}}, {"type": "node", "id": 357373211, "lat": 40.0810257, "lon": -75.1747564, "tags": {"amenity": "school", "ele": "122", "gnis:county_id": "101", "gnis:created": "08/23/2007", "gnis:feature_id": "2348887", "gnis:state_id": "42", "name": "John F. McCloskey Elementary School"}}, {"type": "node", "id": 357373235, "lat": 40.0052228, "lon": -75.177411, "tags": {"alt_name": "Mercy Interparochial Education Center", "amenity": "school", "ele": "36", "gnis:county_id": "101", "gnis:created": "08/23/2007", "gnis:feature_id": "2348935", "gnis:state_id": "42", "name": "Mercy Career & Technical High School"}}, {"type": "node", "id": 357373250, "lat": 39.9518, "lon": -75.1715, "tags": {"amenity": "post_office", "ele": "12", "gnis:county_id": "101", "gnis:created": "08/23/2007", "gnis:edited": "10/23/2007", "gnis:feature_id": "2348960", "gnis:state_id": "42", "name": "Middle City Post Office"}}, {"type": "node", "id": 357373289, "lat": 40.0521936, "lon": -75.1853165, "tags": {"amenity": "post_office", "ele": "113", "gnis:county_id": "101", "gnis:created": "08/23/2007", "gnis:edited": "10/23/2007", "gnis:feature_id": "2349052", "gnis:state_id": "42", "name": "Mount Airy Station Post Office"}}, {"type": "node", "id": 357373320, "lat": 40.0163139, "lon": -75.1258704, "tags": {"amenity": "post_office", "ele": "25", "gnis:county_id": "101", "gnis:created": "08/23/2007", "gnis:edited": "10/23/2007", "gnis:feature_id": "2349097", "gnis:state_id": "42", "name": "Hunting Park Station Post Office"}}, {"type": "node", "id": 357373383, "lat": 39.951741, "lon": -75.1613563, "tags": {"amenity": "post_office", "ele": "13", "gnis:county_id": "101", "gnis:created": "08/23/2007", "gnis:edited": "10/23/2007", "gnis:feature_id": "2349177", "gnis:state_id": "42", "name": "John Wanamaker Post Office", "operator": "United States Postal Service", "operator:short": "USPS", "operator:type": "public", "operator:wikidata": "Q668687", "operator:wikipedia": "en:United States Postal Service", "short_name": "USPS"}}, {"type": "node", "id": 357373385, "lat": 39.9936, "lon": -75.1446, "tags": {"amenity": "school", "ele": "32", "gnis:county_id": "101", "gnis:created": "08/23/2007", "gnis:feature_id": "2349179", "gnis:state_id": "42", "name": "Julia Debergos Middle School"}}, {"type": "node", "id": 357373400, "lat": 39.9359263, "lon": -75.1872325, "tags": {"amenity": "school", "ele": "12", "gnis:county_id": "101", "gnis:created": "08/23/2007", "gnis:feature_id": "2349206", "gnis:state_id": "42", "name": "Universal Alcorn Middle Years Academy", "old_name": "King of Peace School"}}, {"type": "node", "id": 357373410, "lat": 39.9438954, "lon": -75.2261392, "tags": {"amenity": "post_office", "ele": "30", "gnis:county_id": "101", "gnis:created": "08/23/2007", "gnis:edited": "10/23/2007", "gnis:feature_id": "2349225", "gnis:state_id": "42", "name": "Kingsessing Post Office", "operator": "United States Postal Service", "operator:type": "public", "operator:wikidata": "Q668687", "operator:wikipedia": "en:United States Postal Service", "short_name": "USPS", "source": "Mapbox"}}, {"type": "node", "id": 357373423, "lat": 40.081, "lon": -74.988, "tags": {"amenity": "school", "ele": "32", "gnis:county_id": "101", "gnis:created": "08/23/2007", "gnis:feature_id": "2349237", "gnis:state_id": "42", "name": "La Brum Middle School"}}, {"type": "node", "id": 357373431, "lat": 39.9742, "lon": -75.2226, "tags": {"amenity": "place_of_worship", "ele": "33", "gnis:county_id": "101", "gnis:created": "08/23/2007", "gnis:feature_id": "2349241", "gnis:state_id": "42", "name": "Lady of Angels Church", "religion": "christian"}}, {"type": "node", "id": 357373706, "lat": 39.9761771, "lon": -75.2284965, "tags": {"amenity": "school", "ele": "37", "gnis:county_id": "101", "gnis:created": "08/23/2007", "gnis:feature_id": "2349438", "gnis:state_id": "42", "name": "Shoemaker Middle School"}}, {"type": "node", "id": 357373718, "lat": 40.1261, "lon": -75.0136, "tags": {"amenity": "place_of_worship", "denomination": "methodist", "ele": "64", "gnis:county_id": "101", "gnis:created": "08/23/2007", "gnis:feature_id": "2349468", "gnis:state_id": "42", "name": "Somerton Methodist Church", "religion": "christian"}}, {"type": "node", "id": 357373766, "lat": 40.0354, "lon": -75.1216, "tags": {"amenity": "post_office", "ele": "41", "gnis:county_id": "101", "gnis:created": "08/23/2007", "gnis:edited": "10/23/2007", "gnis:feature_id": "2349530", "gnis:state_id": "42", "name": "Olney Station Post Office"}}, {"type": "node", "id": 357373802, "lat": 40.0792684, "lon": -75.2102414, "tags": {"amenity": "school", "ele": "127", "gnis:county_id": "101", "gnis:created": "08/23/2007", "gnis:feature_id": "2349553", "gnis:state_id": "42", "name": "Our Mother of Consolation School"}}, {"type": "node", "id": 357373806, "lat": 39.9738449, "lon": -75.2547932, "tags": {"amenity": "school", "ele": "43", "gnis:county_id": "101", "gnis:created": "08/23/2007", "gnis:feature_id": "2349556", "gnis:state_id": "42", "name": "Overbrook Educational Center"}}, {"type": "node", "id": 357373810, "lat": 39.9735344, "lon": -75.2455391, "tags": {"addr:city": "Philadelphia", "addr:housenumber": "658", "addr:street": "North 63rd Street", "amenity": "post_office", "check_date": "2023-06-09", "ele": "49", "gnis:county_id": "101", "gnis:created": "08/23/2007", "gnis:edited": "10/23/2007", "gnis:feature_id": "2349561", "gnis:state_id": "42", "name": "Overbrook Post Office", "opening_hours": "Mo-Fr 08:00-17:00; Sa 09:00-13:00; Su off", "phone": "+1 215-472-3607"}}, {"type": "node", "id": 357373842, "lat": 39.9136, "lon": -75.2332, "tags": {"amenity": "post_office", "ele": "8", "gnis:county_id": "101", "gnis:created": "08/23/2007", "gnis:edited": "10/23/2007", "gnis:feature_id": "2349611", "gnis:state_id": "42", "name": "Paschall Post Office"}}, {"type": "node", "id": 357373853, "lat": 39.9728736, "lon": -75.1272432, "tags": {"alt_name": "Pennsylvania Treaty Junior High School", "amenity": "school", "ele": "6", "gnis:county_id": "101", "gnis:created": "08/23/2007", "gnis:feature_id": "2349646", "gnis:state_id": "42", "name": "Penn Treaty School", "old_name": "Penn Treaty Middle School", "wikidata": "Q7163338"}}, {"type": "node", "id": 357373890, "lat": 40.0321214, "lon": -75.1744178, "tags": {"amenity": "school", "ele": "76", "gnis:county_id": "101", "gnis:created": "08/23/2007", "gnis:feature_id": "2349673", "gnis:state_id": "42", "name": "Pennsylvania School for the Deaf"}}, {"type": "node", "id": 357373910, "lat": 40.1063091, "lon": -74.9780284, "tags": {"alt_name": "Community College of Philadelphia - Northeast Regional Center", "amenity": "school", "ele": "30", "gnis:county_id": "101", "gnis:created": "08/23/2007", "gnis:feature_id": "2349707", "gnis:state_id": "42", "name": "Philadelphia Community College Northeast Branch"}}, {"type": "node", "id": 357373912, "lat": 39.9734067, "lon": -75.2521699, "tags": {"alt_name": "Philadelphia Harambee Institute of Science and Technology", "amenity": "school", "ele": "75", "gnis:county_id": "101", "gnis:created": "08/23/2007", "gnis:feature_id": "2349776", "gnis:state_id": "42", "name": "Harambee Insitute of Science and Technology Charter School"}}, {"type": "node", "id": 357373943, "lat": 39.9908485, "lon": -75.2330873, "tags": {"amenity": "place_of_worship", "denomination": "baptist", "ele": "74", "gnis:county_id": "101", "gnis:created": "08/23/2007", "gnis:feature_id": "2349823", "gnis:state_id": "42", "name": "Pinn Memorial Baptist Church", "religion": "christian"}}, {"type": "node", "id": 357373961, "lat": 39.92591, "lon": -75.1883524, "tags": {"amenity": "post_office", "ele": "10", "gnis:county_id": "101", "gnis:created": "08/23/2007", "gnis:edited": "10/23/2007", "gnis:feature_id": "2349858", "gnis:state_id": "42", "name": "Point Breeze Post Office"}}, {"type": "node", "id": 357373963, "lat": 40.0802672, "lon": -75.0392687, "tags": {"addr:city": "Philadelphia", "addr:housenumber": "9225", "addr:postcode": "19115", "addr:state": "PA", "addr:street": "Old Bustleton Avenue", "amenity": "school", "ele": "39", "gnis:county_id": "101", "gnis:created": "08/23/2007", "gnis:feature_id": "2349859", "gnis:state_id": "42", "name": "Politz Hebrew Academy", "phone": "(215) 969-5960", "website": "https://www.politzhebrewacademy.org/", "wikidata": "Q5439025"}}, {"type": "node", "id": 357374015, "lat": 40.0091883, "lon": -75.179685, "tags": {"alt_name": "Randolph Skills Center", "amenity": "school", "ele": "44", "gnis:county_id": "101", "gnis:created": "08/23/2007", "gnis:feature_id": "2349929", "gnis:state_id": "42", "name": "A. Philip Randolph Career and Technical High School"}}, {"type": "node", "id": 357374065, "lat": 40.0353164, "lon": -75.21728, "tags": {"amenity": "post_office", "check_date": "2023-10-19", "ele": "90", "name": "Roxborough Station Post Office", "opening_hours": "Mo-Fr 08:30-17:00; Sa 09:00-15:00; PH,Su off"}}, {"type": "node", "id": 357374067, "lat": 40.0345797, "lon": -75.2141989}, {"type": "node", "id": 357374128, "lat": 39.9118, "lon": -75.2375, "tags": {"amenity": "place_of_worship", "ele": "7", "gnis:county_id": "101", "gnis:created": "08/23/2007", "gnis:feature_id": "2350101", "gnis:state_id": "42", "name": "Saint Irenaeous Church", "religion": "christian"}}, {"type": "node", "id": 357374162, "lat": 40.0836, "lon": -74.9961, "tags": {"amenity": "post_office", "ele": "30", "gnis:county_id": "101", "gnis:created": "08/23/2007", "gnis:edited": "10/23/2007", "gnis:feature_id": "2350148", "gnis:state_id": "42", "name": "Torresdale Post Office"}}, {"type": "node", "id": 357374291, "lat": 40.0374345, "lon": -75.1469995, "tags": {"amenity": "school", "ele": "59", "gnis:county_id": "101", "gnis:created": "08/23/2007", "gnis:feature_id": "2350352", "gnis:state_id": "42", "name": "Widener Memorial School"}}, {"type": "node", "id": 357374322, "lat": 40.0333, "lon": -75.178, "tags": {"amenity": "post_office", "ele": "76", "gnis:county_id": "101", "gnis:created": "08/23/2007", "gnis:edited": "10/23/2007", "gnis:feature_id": "2350430", "gnis:state_id": "42", "name": "Vernon Park Station Post Office"}}, {"type": "node", "id": 357374335, "lat": 40.0810184, "lon": -75.1722921, "tags": {"amenity": "post_office", "ele": "117", "gnis:county_id": "101", "gnis:created": "08/23/2007", "gnis:edited": "10/23/2007", "gnis:feature_id": "2350463", "gnis:state_id": "42", "name": "Wadsworth Station Post Office"}}, {"type": "node", "id": 357374357, "lat": 40.0731, "lon": -75.0337, "tags": {"amenity": "post_office", "ele": "37", "gnis:county_id": "101", "gnis:created": "08/23/2007", "gnis:edited": "10/23/2007", "gnis:feature_id": "2350540", "gnis:state_id": "42", "name": "Welsh Road Post Office"}}, {"type": "node", "id": 357374372, "lat": 39.9575252, "lon": -75.2219924, "tags": {"amenity": "post_office", "ele": "33", "gnis:county_id": "101", "gnis:created": "08/23/2007", "gnis:edited": "10/23/2007", "gnis:feature_id": "2350579", "gnis:state_id": "42", "name": "West Market Street Post Office"}}, {"type": "node", "id": 357374376, "lat": 40.0629, "lon": -75.1557, "tags": {"amenity": "place_of_worship", "ele": "93", "gnis:county_id": "101", "gnis:created": "08/23/2007", "gnis:feature_id": "2350588", "gnis:state_id": "42", "name": "West Oak Lane Church of God", "religion": "christian"}}, {"type": "node", "id": 357374378, "lat": 39.9801887, "lon": -75.2283347, "tags": {"amenity": "post_office", "ele": "42", "gnis:county_id": "101", "gnis:created": "08/23/2007", "gnis:edited": "10/23/2007", "gnis:feature_id": "2350590", "gnis:state_id": "42", "name": "West Park Station Post Office", "operator": "United States Postal Service", "operator:short": "USPS", "operator:type": "public", "operator:wikidata": "Q668687", "operator:wikipedia": "en:United States Postal Service", "short_name": "USPS"}}, {"type": "node", "id": 357374384, "lat": 39.9305, "lon": -75.1625, "tags": {"amenity": "post_office", "ele": "8", "gnis:county_id": "101", "gnis:created": "08/23/2007", "gnis:edited": "10/23/2007", "gnis:feature_id": "2350615", "gnis:state_id": "42", "name": "Southwark Post Office"}}, {"type": "node", "id": 357374411, "lat": 39.9905076, "lon": -75.1841117, "tags": {"amenity": "school", "ele": "35", "gnis:county_id": "101", "gnis:created": "08/23/2007", "gnis:feature_id": "2350711", "gnis:state_id": "42", "name": "Strawberry Mansion High School", "old_name": "Strawberry Mansion Middle and High School", "website": "https://smhs.philasd.org/", "wikipedia": "en:Strawberry Mansion High School"}}, {"type": "node", "id": 357374492, "lat": 40.0259, "lon": -75.0439, "tags": {"amenity": "post_office", "ele": "17", "gnis:county_id": "101", "gnis:created": "08/23/2007", "gnis:edited": "10/23/2007", "gnis:feature_id": "2350761", "gnis:state_id": "42", "name": "Tacony Post Office"}}, {"type": "node", "id": 357374568, "lat": 39.9904261, "lon": -75.2329977, "tags": {"amenity": "place_of_worship", "denomination": "presbyterian", "ele": "75", "gnis:county_id": "101", "gnis:created": "08/23/2007", "gnis:feature_id": "2350890", "gnis:state_id": "42", "name": "Wynnefield United Presbyterian Church", "religion": "christian"}}, {"type": "node", "id": 360476273, "lat": 39.9561645, "lon": -75.2022831, "tags": {"addr:housenumber": "31", "addr:postcode": "19104", "addr:street": "S 41st St", "amenity": "cafe", "cuisine": "coffee_shop", "internet_access": "wlan", "name": "Green Line Cafe"}}, {"type": "node", "id": 360486982, "lat": 39.9527587, "lon": -75.1931048}, {"type": "node", "id": 360486983, "lat": 39.9523947, "lon": -75.1931789}, {"type": "node", "id": 360486984, "lat": 39.952487, "lon": -75.1939507}, {"type": "node", "id": 360486985, "lat": 39.9526305, "lon": -75.1939215}, {"type": "node", "id": 360486986, "lat": 39.9526602, "lon": -75.19417}, {"type": "node", "id": 360486987, "lat": 39.9526, "lon": -75.1941823}, {"type": "node", "id": 360486988, "lat": 39.9526692, "lon": -75.1947608}, {"type": "node", "id": 360486989, "lat": 39.9530122, "lon": -75.194691}, {"type": "node", "id": 360486990, "lat": 39.9529419, "lon": -75.1941033}, {"type": "node", "id": 360486991, "lat": 39.9528163, "lon": -75.1941288}, {"type": "node", "id": 360486992, "lat": 39.9527889, "lon": -75.1938999}, {"type": "node", "id": 360486993, "lat": 39.9528522, "lon": -75.193887}, {"type": "node", "id": 360489375, "lat": 39.9557159, "lon": -75.2038153}, {"type": "node", "id": 360489376, "lat": 39.9556734, "lon": -75.2034642}, {"type": "node", "id": 360489377, "lat": 39.9550788, "lon": -75.2035867}, {"type": "node", "id": 360489378, "lat": 39.9551212, "lon": -75.2039377}, {"type": "node", "id": 360509205, "lat": 39.9703631, "lon": -75.2179472}, {"type": "node", "id": 360514959, "lat": 39.9428241, "lon": -75.1481129}, {"type": "node", "id": 360515433, "lat": 39.9429152, "lon": -75.1480977}, {"type": "node", "id": 360515435, "lat": 39.9429001, "lon": -75.1487914}, {"type": "node", "id": 360543169, "lat": 39.9501575, "lon": -75.1638452, "tags": {"addr:city": "Philadelphia", "addr:housenumber": "121", "addr:street": "South Broad Street", "amenity": "bank", "atm": "yes", "brand": "TD Bank", "brand:wikidata": "Q7669891", "brand:wikipedia": "en:TD Bank, N.A.", "name": "TD Bank"}}, {"type": "node", "id": 360561175, "lat": 39.9599318, "lon": -75.1714934}, {"type": "node", "id": 360561176, "lat": 39.959802, "lon": -75.1704281}, {"type": "node", "id": 360561177, "lat": 39.9592452, "lon": -75.1705446}, {"type": "node", "id": 360561178, "lat": 39.9593805, "lon": -75.1716134}, {"type": "node", "id": 361009217, "lat": 39.9521611, "lon": -75.1851511, "tags": {"addr:city": "Philadelphia", "addr:housenumber": "3025", "addr:postcode": "19104", "addr:state": "PA", "addr:street": "Walnut Street", "alt_name": "WXPN", "amenity": "cafe", "attraction": "music_venue", "name": "World Cafe Live", "phone": "(215) 222-1400"}}, {"type": "node", "id": 361011451, "lat": 39.9519002, "lon": -75.1610562, "tags": {"amenity": "bank", "brand": "Citizens Bank", "brand:wikidata": "Q5122694", "brand:wikipedia": "en:Citizens Financial Group", "name": "Citizens Bank", "short_name": "Citizens"}}, {"type": "node", "id": 367685768, "lat": 39.9333017, "lon": -75.1421892, "tags": {"addr:city": "Philadelphia", "addr:housenumber": "1", "addr:postcode": "19147", "addr:state": "PA", "addr:street": "Washington Avenue", "amenity": "fire_station", "ele": "5", "gnis:county_name": "Camden", "gnis:feature_id": "2340359", "gnis:import_uuid": "57871b70-0100-4405-bb30-88b2e001a944", "gnis:reviewed": "no", "name": "Philadelphia Marine Number 1 Fire Station", "source": "USGS Geonames"}}, {"type": "node", "id": 367962740, "lat": 40.0698462, "lon": -75.156797, "tags": {"addr:state": "PA", "amenity": "fire_station", "ele": "89", "gnis:county_name": "Philadelphia", "gnis:feature_id": "2349761", "gnis:import_uuid": "57871b70-0100-4405-bb30-88b2e001a944", "gnis:reviewed": "no", "name": "Philadelphia Company 73 Fire Station", "source": "USGS Geonames"}}, {"type": "node", "id": 367962748, "lat": 40.0257232, "lon": -75.1432682, "tags": {"addr:state": "PA", "amenity": "fire_station", "ele": "33", "gnis:county_name": "Philadelphia", "gnis:feature_id": "2349760", "gnis:import_uuid": "57871b70-0100-4405-bb30-88b2e001a944", "gnis:reviewed": "no", "name": "Philadelphia Company 72 Fire Station", "source": "USGS Geonames"}}, {"type": "node", "id": 367962754, "lat": 40.0286503, "lon": -75.0980532}, {"type": "node", "id": 367962757, "lat": 40.0042186, "lon": -75.1001405}, {"type": "node", "id": 367962760, "lat": 39.8934993, "lon": -75.2385244, "tags": {"addr:state": "PA", "alt_name": "Philadelphia Fire Department - Engine 69", "amenity": "fire_station", "ele": "2", "gnis:county_name": "Philadelphia", "gnis:feature_id": "2349756", "gnis:import_uuid": "57871b70-0100-4405-bb30-88b2e001a944", "gnis:reviewed": "no", "name": "Philadelphia Company 69 Fire Station", "source": "USGS Geonames"}}, {"type": "node", "id": 367962773, "lat": 40.0315051, "lon": -75.1176843, "tags": {"addr:state": "PA", "amenity": "fire_station", "ele": "37", "gnis:county_name": "Philadelphia", "gnis:feature_id": "2349750", "gnis:import_uuid": "57871b70-0100-4405-bb30-88b2e001a944", "gnis:reviewed": "no", "name": "Philadelphia Company 61 Fire Station", "source": "USGS Geonames"}}, {"type": "node", "id": 367962775, "lat": 39.9230259, "lon": -75.1864874, "tags": {"addr:state": "PA", "amenity": "fire_station", "ele": "10", "gnis:county_name": "Philadelphia", "gnis:feature_id": "2349749", "gnis:import_uuid": "57871b70-0100-4405-bb30-88b2e001a944", "gnis:reviewed": "no", "name": "Philadelphia Company 60 Fire Station", "source": "USGS Geonames"}}, {"type": "node", "id": 367962776, "lat": 39.9788445, "lon": -75.1183708, "tags": {"addr:state": "PA", "amenity": "fire_station", "ele": "5", "gnis:county_name": "Philadelphia", "gnis:feature_id": "2349748", "gnis:import_uuid": "57871b70-0100-4405-bb30-88b2e001a944", "gnis:reviewed": "no", "name": "Philadelphia Company 6 Fire Station", "source": "USGS Geonames"}}, {"type": "node", "id": 367962778, "lat": 40.0111149, "lon": -75.1647039, "tags": {"addr:state": "PA", "amenity": "fire_station", "ele": "41", "gnis:county_name": "Philadelphia", "gnis:feature_id": "2349747", "gnis:import_uuid": "57871b70-0100-4405-bb30-88b2e001a944", "gnis:reviewed": "no", "name": "Philadelphia Company 59 and Ladder 18 Fire Station", "source": "USGS Geonames"}}, {"type": "node", "id": 367962780, "lat": 40.1184171, "lon": -75.0170562}, {"type": "node", "id": 367962785, "lat": 39.9596651, "lon": -75.2328834, "tags": {"addr:state": "PA", "amenity": "fire_station", "ele": "30", "gnis:county_name": "Philadelphia", "gnis:feature_id": "2349745", "gnis:import_uuid": "57871b70-0100-4405-bb30-88b2e001a944", "gnis:reviewed": "no", "name": "Philadelphia Company 57 Fire Station", "source": "USGS Geonames"}}, {"type": "node", "id": 367962786, "lat": 39.9847346, "lon": -75.247013, "tags": {"addr:state": "PA", "amenity": "fire_station", "ele": "65", "gnis:county_name": "Philadelphia", "gnis:feature_id": "2349742", "gnis:import_uuid": "57871b70-0100-4405-bb30-88b2e001a944", "gnis:reviewed": "no", "name": "Philadelphia Company 54 Fire Station", "source": "USGS Geonames"}}, {"type": "node", "id": 367962788, "lat": 40.0111001, "lon": -75.1270881, "tags": {"addr:state": "PA", "amenity": "fire_station", "ele": "29", "gnis:county_name": "Philadelphia", "gnis:feature_id": "2349743", "gnis:import_uuid": "57871b70-0100-4405-bb30-88b2e001a944", "gnis:reviewed": "no", "name": "Philadelphia Company 55 / Ladder 22 Fire Station", "source": "USGS Geonames"}}, {"type": "node", "id": 367962791, "lat": 40.0182194, "lon": -75.0633405}, {"type": "node", "id": 367962794, "lat": 39.9220778, "lon": -75.1536863, "tags": {"addr:state": "PA", "amenity": "fire_station", "ele": "5", "gnis:county_name": "Philadelphia", "gnis:feature_id": "2349741", "gnis:import_uuid": "57871b70-0100-4405-bb30-88b2e001a944", "gnis:reviewed": "no", "name": "Philadelphia Company 53 Fire Station", "source": "USGS Geonames"}}, {"type": "node", "id": 367962798, "lat": 40.0443637, "lon": -75.1438825, "tags": {"addr:state": "PA", "amenity": "fire_station", "ele": "66", "gnis:county_name": "Philadelphia", "gnis:feature_id": "2349739", "gnis:import_uuid": "57871b70-0100-4405-bb30-88b2e001a944", "gnis:reviewed": "no", "name": "Philadelphia Company 51 and Ladder 29 Fire Station", "source": "USGS Geonames"}}, {"type": "node", "id": 367962800, "lat": 39.9177835, "lon": -75.1692879, "tags": {"addr:state": "PA", "amenity": "fire_station", "ele": "6", "gnis:county_name": "Philadelphia", "gnis:feature_id": "2349736", "gnis:import_uuid": "57871b70-0100-4405-bb30-88b2e001a944", "gnis:reviewed": "no", "name": "Philadelphia Company 49 Fire Station", "source": "USGS Geonames"}}, {"type": "node", "id": 367962801, "lat": 39.9581991, "lon": -75.2075582, "tags": {"addr:state": "PA", "amenity": "fire_station", "ele": "25", "gnis:county_name": "Philadelphia", "gnis:feature_id": "2349737", "gnis:import_uuid": "57871b70-0100-4405-bb30-88b2e001a944", "gnis:reviewed": "no", "name": "Philadelphia Company 5 Fire Station", "source": "USGS Geonames"}}, {"type": "node", "id": 367962805, "lat": 39.939369, "lon": -75.1943359, "tags": {"addr:state": "PA", "amenity": "fire_station", "ele": "7", "gnis:county_name": "Philadelphia", "gnis:feature_id": "2349735", "gnis:import_uuid": "57871b70-0100-4405-bb30-88b2e001a944", "gnis:reviewed": "no", "name": "Philadelphia Company 47 Fire Station", "source": "USGS Geonames"}}, {"type": "node", "id": 367962809, "lat": 39.9921193, "lon": -75.1746153, "tags": {"addr:state": "PA", "amenity": "fire_station", "ele": "35", "gnis:county_name": "Philadelphia", "gnis:feature_id": "2349733", "gnis:import_uuid": "57871b70-0100-4405-bb30-88b2e001a944", "gnis:reviewed": "no", "name": "Philadelphia Company 45 and Ladder 14 Fire Station", "source": "USGS Geonames"}}, {"type": "node", "id": 367962810, "lat": 39.9712015, "lon": -75.2407354, "tags": {"addr:state": "PA", "amenity": "fire_station", "ele": "37", "gnis:county_name": "Philadelphia", "gnis:feature_id": "2349730", "gnis:import_uuid": "57871b70-0100-4405-bb30-88b2e001a944", "gnis:reviewed": "no", "name": "Engine Company 41 Fire Station", "source": "USGS Geonames"}}, {"type": "node", "id": 367962880, "lat": 40.0548505, "lon": -75.187326, "tags": {"addr:state": "PA", "amenity": "fire_station", "ele": "101", "gnis:county_name": "Philadelphia", "gnis:feature_id": "2349763", "gnis:import_uuid": "57871b70-0100-4405-bb30-88b2e001a944", "gnis:reviewed": "no", "name": "Philadelphia Company 9 & Ladder 21 Fire Station", "source": "USGS Geonames"}}, {"type": "node", "id": 367962881, "lat": 39.9326126, "lon": -75.1637461, "tags": {"addr:state": "PA", "amenity": "fire_station", "ele": "9", "gnis:county_name": "Philadelphia", "gnis:feature_id": "2349764", "gnis:import_uuid": "57871b70-0100-4405-bb30-88b2e001a944", "gnis:reviewed": "no", "name": "Philadelphia Company10 Fire Station", "source": "USGS Geonames"}}, {"type": "node", "id": 367962883, "lat": 39.9219489, "lon": -75.2032569, "tags": {"addr:state": "PA", "amenity": "fire_station", "ele": "2", "gnis:county_name": "Philadelphia", "gnis:feature_id": "2349780", "gnis:import_uuid": "57871b70-0100-4405-bb30-88b2e001a944", "gnis:reviewed": "no", "name": "Philadelphia Marine Number 2 Fire Station", "source": "USGS Geonames"}}, {"type": "node", "id": 367962955, "lat": 40.0016108, "lon": -75.0672464}, {"type": "node", "id": 367962956, "lat": 39.9335586, "lon": -75.1478158, "tags": {"addr:state": "PA", "amenity": "fire_station", "ele": "6", "gnis:county_name": "Philadelphia", "gnis:feature_id": "2349722", "gnis:import_uuid": "57871b70-0100-4405-bb30-88b2e001a944", "gnis:reviewed": "no", "name": "Philadelphia Company 3 Fire Station", "source": "USGS Geonames"}}, {"type": "node", "id": 367962958, "lat": 40.0406289, "lon": -75.0311438, "tags": {"addr:state": "PA", "amenity": "fire_station", "ele": "27", "gnis:county_name": "Philadelphia", "gnis:feature_id": "2349725", "gnis:import_uuid": "57871b70-0100-4405-bb30-88b2e001a944", "gnis:reviewed": "no", "name": "Philadelphia Company 36 and Ladder 20 Fire Station", "source": "USGS Geonames"}}, {"type": "node", "id": 367962960, "lat": 39.9762592, "lon": -75.1812127, "tags": {"addr:state": "PA", "amenity": "fire_station", "ele": "30", "gnis:county_name": "Philadelphia", "gnis:feature_id": "2349724", "gnis:import_uuid": "57871b70-0100-4405-bb30-88b2e001a944", "gnis:reviewed": "no", "name": "Philadelphia Company 34 Fire Station", "source": "USGS Geonames"}}, {"type": "node", "id": 367962962, "lat": 40.0746937, "lon": -75.2080943, "tags": {"addr:city": "Philadelphia", "addr:housenumber": "101", "addr:postcode": "19118", "addr:state": "PA", "addr:street": "West Highland Avenue", "amenity": "fire_station", "ele": "131", "gnis:county_name": "Philadelphia", "gnis:feature_id": "2349726", "gnis:import_uuid": "57871b70-0100-4405-bb30-88b2e001a944", "gnis:reviewed": "no", "name": "Philadelphia Fire Department - Engine 37", "source": "USGS Geonames"}},